[{"id": "200089", "name": "Rhode Island Ave @ Florida Ave", "image": "https://ie.trafficland.com/v2.0/200089/full?system=ddot&pubtoken=0a8e74dc7df74c9d940b08dd965a0de9b5e6f4168421aba8b5356a496797cb24&refreshRate=2000", "smallimage": "https://ie.trafficland.com/v2.0/200089/half?system=ddot&pubtoken=0a8e74dc7df74c9d940b08dd965a0de9b5e6f4168421aba8b5356a496797cb24&refreshRate=2000", "lat": 38.914141, "lng": -77.017133, "refresh": 2000, "provider": "DDOT", "pindex": 1}, {"id": "200106", "name": "Virginia Ave @ E St", "image": "https://ie.trafficland.com/v2.0/200106/full?system=ddot&pubtoken=296eba3f1c6df7ebff13ce367edcb38b9f5ffd5bac61dd85758a7af0baa18a24&refreshRate=2000", "smallimage": "https://ie.trafficland.com/v2.0/200106/half?system=ddot&pubtoken=296eba3f1c6df7ebff13ce367edcb38b9f5ffd5bac61dd85758a7af0baa18a24&refreshRate=2000", "lat": 38.89608, "lng": -77.048395, "refresh": 2000, "provider": "DDOT", "pindex": 1}, {"id": "200088", "name": "7th St @ Rhode Island Ave", "image": "https://ie.trafficland.com/v2.0/200088/full?system=ddot&pubtoken=ef7d0090c9f208b911ccb622a3cad5be28ada2d2fa101d773f5bcdb58851a160&refreshRate=2000", "smallimage": "https://ie.trafficland.com/v2.0/200088/half?system=ddot&pubtoken=ef7d0090c9f208b911ccb622a3cad5be28ada2d2fa101d773f5bcdb58851a160&refreshRate=2000", "lat": 38.912449, "lng": -77.022024, "refresh": 2000, "provider": "DDOT", "pindex": 1}, {"id": "200087", "name": "7th St @ New York Ave & Mt Vernon Pl", "image": "https://ie.trafficland.com/v2.0/200087/full?system=ddot&pubtoken=8b01ea6eef6b2d70d116a6bbf0167183664454a051a39ab0af0e7a8cca547546&refreshRate=2000", "smallimage": "https://ie.trafficland.com/v2.0/200087/half?system=ddot&pubtoken=8b01ea6eef6b2d70d116a6bbf0167183664454a051a39ab0af0e7a8cca547546&refreshRate=2000", "lat": 38.902815, "lng": -77.022025, "refresh": 2000, "provider": "DDOT", "pindex": 1}, {"id": "200085", "name": "New York Ave @ N Capitol St", "image": "https://ie.trafficland.com/v2.0/200085/full?system=ddot&pubtoken=a4ce010c2906e09a026f143c9fbdcd2e427ba6dae9145ebc4b7cc1ed769c9399&refreshRate=2000", "smallimage": "https://ie.trafficland.com/v2.0/200085/half?system=ddot&pubtoken=a4ce010c2906e09a026f143c9fbdcd2e427ba6dae9145ebc4b7cc1ed769c9399&refreshRate=2000", "lat": 38.907463, "lng": -77.008997, "refresh": 2000, "provider": "DDOT", "pindex": 1}, {"id": "200084", "name": "New York Ave @ 9th St", "image": "https://ie.trafficland.com/v2.0/200084/full?system=ddot&pubtoken=f933f429f63955db1d4cc3e08bc54d7095ef8b41eda106595175ea3d34d0bbb5&refreshRate=2000", "smallimage": "https://ie.trafficland.com/v2.0/200084/half?system=ddot&pubtoken=f933f429f63955db1d4cc3e08bc54d7095ef8b41eda106595175ea3d34d0bbb5&refreshRate=2000", "lat": 38.913675, "lng": -76.990527, "refresh": 2000, "provider": "DDOT", "pindex": 1}, {"id": "200083", "name": "E Capitol St @ 58th St", "image": "https://ie.trafficland.com/v2.0/200083/full?system=ddot&pubtoken=9332bf1eca50a8234a8cadf5a23bb3525b1fc65fd8a5da77a127a6ae9035fc8d&refreshRate=2000", "smallimage": "https://ie.trafficland.com/v2.0/200083/half?system=ddot&pubtoken=9332bf1eca50a8234a8cadf5a23bb3525b1fc65fd8a5da77a127a6ae9035fc8d&refreshRate=2000", "lat": 38.889744, "lng": -76.917658, "refresh": 2000, "provider": "DDOT", "pindex": 1}, {"id": "200081", "name": "Benning Rd @ 36th St", "image": "https://ie.trafficland.com/v2.0/200081/full?system=ddot&pubtoken=1753fcd75eda7d73c3ef639e9d47e2b189fc0c3bee4ee3fc58c2ccbd4de7e85a&refreshRate=2000", "smallimage": "https://ie.trafficland.com/v2.0/200081/half?system=ddot&pubtoken=1753fcd75eda7d73c3ef639e9d47e2b189fc0c3bee4ee3fc58c2ccbd4de7e85a&refreshRate=2000", "lat": 38.895862, "lng": -76.954186, "refresh": 2000, "provider": "DDOT", "pindex": 1}, {"id": "200080", "name": "7th St @ H St", "image": "https://ie.trafficland.com/v2.0/200080/full?system=ddot&pubtoken=9985d2a2008a94c7a135faf03804c36c2ae7e6341a4fa5f2912f0a4d3b21040c&refreshRate=2000", "smallimage": "https://ie.trafficland.com/v2.0/200080/half?system=ddot&pubtoken=9985d2a2008a94c7a135faf03804c36c2ae7e6341a4fa5f2912f0a4d3b21040c&refreshRate=2000", "lat": 38.899688, "lng": -77.022019, "refresh": 2000, "provider": "DDOT", "pindex": 1}, {"id": "200078", "name": "H St @ 3rd St", "image": "https://ie.trafficland.com/v2.0/200078/full?system=ddot&pubtoken=40262ff0ab45a337fc5985777d69a88a0c21e6abace5c00ffaca552b5a28d89c&refreshRate=2000", "smallimage": "https://ie.trafficland.com/v2.0/200078/half?system=ddot&pubtoken=40262ff0ab45a337fc5985777d69a88a0c21e6abace5c00ffaca552b5a28d89c&refreshRate=2000", "lat": 38.9001, "lng": -77.002188, "refresh": 2000, "provider": "DDOT", "pindex": 1}, {"id": "200073", "name": "24th St @ Washington Circle", "image": "https://ie.trafficland.com/v2.0/200073/full?system=ddot&pubtoken=f8e72ed0913a56d6cc200d5fe532335bed0d02ba3125747b41eccf0455cd35eb&refreshRate=2000", "smallimage": "https://ie.trafficland.com/v2.0/200073/half?system=ddot&pubtoken=f8e72ed0913a56d6cc200d5fe532335bed0d02ba3125747b41eccf0455cd35eb&refreshRate=2000", "lat": 38.902598, "lng": -77.051338, "refresh": 2000, "provider": "DDOT", "pindex": 1}, {"id": "200151", "name": "Pennsylvania Ave @ 17th St", "image": "https://ie.trafficland.com/v2.0/200151/full?system=ddot&pubtoken=d456effa8c0cd5c2fa16bdd985cd83b68edfbb791214178658099df5193818b3&refreshRate=2000", "smallimage": "https://ie.trafficland.com/v2.0/200151/half?system=ddot&pubtoken=d456effa8c0cd5c2fa16bdd985cd83b68edfbb791214178658099df5193818b3&refreshRate=2000", "lat": 38.898742, "lng": -77.039612, "refresh": 2000, "provider": "DDOT", "pindex": 1}, {"id": "200150", "name": "17th St @ E St", "image": "https://ie.trafficland.com/v2.0/200150/full?system=ddot&pubtoken=305d972749c3362727fd7975535c91e788e1a32c3d5a746802e26898692aa3a0&refreshRate=2000", "smallimage": "https://ie.trafficland.com/v2.0/200150/half?system=ddot&pubtoken=305d972749c3362727fd7975535c91e788e1a32c3d5a746802e26898692aa3a0&refreshRate=2000", "lat": 38.895493, "lng": -77.039598, "refresh": 2000, "provider": "DDOT", "pindex": 1}, {"id": "200132", "name": "Branch Ave @ Southern Ave", "image": "https://ie.trafficland.com/v2.0/200132/full?system=ddot&pubtoken=eb5d2f920176844ad9c3012b9518b3bcb67db88e0e007e871ea506c760fb2738&refreshRate=2000", "smallimage": "https://ie.trafficland.com/v2.0/200132/half?system=ddot&pubtoken=eb5d2f920176844ad9c3012b9518b3bcb67db88e0e007e871ea506c760fb2738&refreshRate=2000", "lat": 38.854907, "lng": -76.958208, "refresh": 2000, "provider": "DDOT", "pindex": 1}, {"id": "200131", "name": "Alabama Ave @ Branch Ave", "image": "https://ie.trafficland.com/v2.0/200131/full?system=ddot&pubtoken=a98228f9cf77a67db47195aebc71746f7a50b3852559db0656a61544602a8298&refreshRate=2000", "smallimage": "https://ie.trafficland.com/v2.0/200131/half?system=ddot&pubtoken=a98228f9cf77a67db47195aebc71746f7a50b3852559db0656a61544602a8298&refreshRate=2000", "lat": 38.862, "lng": -76.958894, "refresh": 2000, "provider": "DDOT", "pindex": 1}, {"id": "200130", "name": "Pennsylvania Ave @ M St & 28th St", "image": "https://ie.trafficland.com/v2.0/200130/full?system=ddot&pubtoken=63f10a5606b39b0a5fde6c18dcf81cbf44b9f485bb80e5935a95f158f5c3d84d&refreshRate=2000", "smallimage": "https://ie.trafficland.com/v2.0/200130/half?system=ddot&pubtoken=63f10a5606b39b0a5fde6c18dcf81cbf44b9f485bb80e5935a95f158f5c3d84d&refreshRate=2000", "lat": 38.905165, "lng": -77.057453, "refresh": 2000, "provider": "DDOT", "pindex": 1}, {"id": "200129", "name": "Pennsylvania Ave @ 9th St", "image": "https://ie.trafficland.com/v2.0/200129/full?system=ddot&pubtoken=f6cadcedb81ce249c23c1f07cf52cae8b99bd3d72de828776eaaf0fbfd250a8a&refreshRate=2000", "smallimage": "https://ie.trafficland.com/v2.0/200129/half?system=ddot&pubtoken=f6cadcedb81ce249c23c1f07cf52cae8b99bd3d72de828776eaaf0fbfd250a8a&refreshRate=2000", "lat": 38.893686, "lng": -77.024092, "refresh": 2000, "provider": "DDOT", "pindex": 1}, {"id": "200126", "name": "Constitution Ave @ 15th St", "image": "https://ie.trafficland.com/v2.0/200126/full?system=ddot&pubtoken=192187fb89c15fcab19f04298f44fb1c841b921cfef4d13393e347a6641733a0&refreshRate=2000", "smallimage": "https://ie.trafficland.com/v2.0/200126/half?system=ddot&pubtoken=192187fb89c15fcab19f04298f44fb1c841b921cfef4d13393e347a6641733a0&refreshRate=2000", "lat": 38.892212, "lng": -77.033831, "refresh": 2000, "provider": "DDOT", "pindex": 1}, {"id": "200125", "name": "16th St @ K St", "image": "https://ie.trafficland.com/v2.0/200125/full?system=ddot&pubtoken=76c3d88993c9495efe291bf6a22cf34c16064818783bd25527d814b9a1394343&refreshRate=2000", "smallimage": "https://ie.trafficland.com/v2.0/200125/half?system=ddot&pubtoken=76c3d88993c9495efe291bf6a22cf34c16064818783bd25527d814b9a1394343&refreshRate=2000", "lat": 38.902448, "lng": -77.036355, "refresh": 2000, "provider": "DDOT", "pindex": 1}, {"id": "200117", "name": "Western Ave @ Wisconsin Ave", "image": "https://ie.trafficland.com/v2.0/200117/full?system=ddot&pubtoken=b644ec7b2a5ad25ef42ed12dd8f9c040a73a5c2066e199658fb68eaa82a01d05&refreshRate=2000", "smallimage": "https://ie.trafficland.com/v2.0/200117/half?system=ddot&pubtoken=b644ec7b2a5ad25ef42ed12dd8f9c040a73a5c2066e199658fb68eaa82a01d05&refreshRate=2000", "lat": 38.960769, "lng": -77.085913, "refresh": 2000, "provider": "DDOT", "pindex": 1}, {"id": "200116", "name": "Branch Ave @ Pennsylvania Ave", "image": "https://ie.trafficland.com/v2.0/200116/full?system=ddot&pubtoken=f54d58b0d2b86c31ee2cd595ca7ff55c34207ea99d54a3b615bae16c71e9d860&refreshRate=2000", "smallimage": "https://ie.trafficland.com/v2.0/200116/half?system=ddot&pubtoken=f54d58b0d2b86c31ee2cd595ca7ff55c34207ea99d54a3b615bae16c71e9d860&refreshRate=2000", "lat": 38.869422, "lng": -76.960313, "refresh": 2000, "provider": "DDOT", "pindex": 1}, {"id": "200115", "name": "S Capitol St @ Southern Ave", "image": "https://ie.trafficland.com/v2.0/200115/full?system=ddot&pubtoken=f4d900fcd97ddb0209a08367f6cb1d299ba8695c4e08cca0d8fa74b3341b3fae&refreshRate=2000", "smallimage": "https://ie.trafficland.com/v2.0/200115/half?system=ddot&pubtoken=f4d900fcd97ddb0209a08367f6cb1d299ba8695c4e08cca0d8fa74b3341b3fae&refreshRate=2000", "lat": 38.821233, "lng": -77.001479, "refresh": 2000, "provider": "DDOT", "pindex": 1}, {"id": "200114", "name": "M St @ Wisconsin Ave", "image": "https://ie.trafficland.com/v2.0/200114/full?system=ddot&pubtoken=8eeac0c9333f4296a90a495bf85fbafef66f30c8627d43bab077a3827f7f4eb2&refreshRate=2000", "smallimage": "https://ie.trafficland.com/v2.0/200114/half?system=ddot&pubtoken=8eeac0c9333f4296a90a495bf85fbafef66f30c8627d43bab077a3827f7f4eb2&refreshRate=2000", "lat": 38.905089, "lng": -77.062642, "refresh": 2000, "provider": "DDOT", "pindex": 1}, {"id": "200113", "name": "Independence Ave @ Washington Ave", "image": "https://ie.trafficland.com/v2.0/200113/full?system=ddot&pubtoken=42110de46adc0caf9a1f773c760db8cd07fec648f67a4dbf4f2fa385133ad967&refreshRate=2000", "smallimage": "https://ie.trafficland.com/v2.0/200113/half?system=ddot&pubtoken=42110de46adc0caf9a1f773c760db8cd07fec648f67a4dbf4f2fa385133ad967&refreshRate=2000", "lat": 38.887654, "lng": -77.014117, "refresh": 2000, "provider": "DDOT", "pindex": 1}, {"id": "200054", "name": "MacArthur Blvd @ Loughboro Rd", "image": "https://ie.trafficland.com/v2.0/200054/full?system=ddot&pubtoken=0848009426b81499b7c767e987f3f9cd60aff7c1ed8249d54f8f836406b812d4&refreshRate=2000", "smallimage": "https://ie.trafficland.com/v2.0/200054/half?system=ddot&pubtoken=0848009426b81499b7c767e987f3f9cd60aff7c1ed8249d54f8f836406b812d4&refreshRate=2000", "lat": 38.93582, "lng": -77.111663, "refresh": 2000, "provider": "DDOT", "pindex": 1}, {"id": "200146", "name": "14th St @ Independence Ave", "image": "https://ie.trafficland.com/v2.0/200146/full?system=ddot&pubtoken=0690c76afa3526f206ef0770fb3817b548305d3cfb18fc3ca8cf5fcc63377b66&refreshRate=2000", "smallimage": "https://ie.trafficland.com/v2.0/200146/half?system=ddot&pubtoken=0690c76afa3526f206ef0770fb3817b548305d3cfb18fc3ca8cf5fcc63377b66&refreshRate=2000", "lat": 38.887402, "lng": -77.031956, "refresh": 2000, "provider": "DDOT", "pindex": 1}, {"id": "200145", "name": "Constitution Ave @ 20th St", "image": "https://ie.trafficland.com/v2.0/200145/full?system=ddot&pubtoken=531a74b8e2a8e807d49ef1681e776741e4e3c9a3ecf210f662c0a7d867da2448&refreshRate=2000", "smallimage": "https://ie.trafficland.com/v2.0/200145/half?system=ddot&pubtoken=531a74b8e2a8e807d49ef1681e776741e4e3c9a3ecf210f662c0a7d867da2448&refreshRate=2000", "lat": 38.891975, "lng": -77.045043, "refresh": 2000, "provider": "DDOT", "pindex": 1}, {"id": "200144", "name": "N Capitol St @ H St", "image": "https://ie.trafficland.com/v2.0/200144/full?system=ddot&pubtoken=9d09c028a917d611e34f908ba845243ba82ac811b912b2bfc13a9c8ed6ebcb37&refreshRate=2000", "smallimage": "https://ie.trafficland.com/v2.0/200144/half?system=ddot&pubtoken=9d09c028a917d611e34f908ba845243ba82ac811b912b2bfc13a9c8ed6ebcb37&refreshRate=2000", "lat": 38.900343, "lng": -77.009251, "refresh": 2000, "provider": "DDOT", "pindex": 1}, {"id": "200135", "name": "H St @ 2nd St", "image": "https://ie.trafficland.com/v2.0/200135/full?system=ddot&pubtoken=a05a14dc222d8e213fbe9fad1d11baeaec50f52a7b2bc84331d4a48e480d83f5&refreshRate=2000", "smallimage": "https://ie.trafficland.com/v2.0/200135/half?system=ddot&pubtoken=a05a14dc222d8e213fbe9fad1d11baeaec50f52a7b2bc84331d4a48e480d83f5&refreshRate=2000", "lat": 38.900309, "lng": -77.013755, "refresh": 2000, "provider": "DDOT", "pindex": 1}, {"id": "200134", "name": "H St @ Massachusetts Ave & 3rd St", "image": "https://ie.trafficland.com/v2.0/200134/full?system=ddot&pubtoken=a6d5e68a3d0b7c540b64a3a417d0bc3fc66be3e921c13a3441c663c83d146c5f&refreshRate=2000", "smallimage": "https://ie.trafficland.com/v2.0/200134/half?system=ddot&pubtoken=a6d5e68a3d0b7c540b64a3a417d0bc3fc66be3e921c13a3441c663c83d146c5f&refreshRate=2000", "lat": 38.89989, "lng": -77.014865, "refresh": 2000, "provider": "DDOT", "pindex": 1}, {"id": "200133", "name": "K St @ 21st St", "image": "https://ie.trafficland.com/v2.0/200133/full?system=ddot&pubtoken=0bbe762047a7527d38e1244166e219095313a6610adbd0fd91d919c7cbe9a01f&refreshRate=2000", "smallimage": "https://ie.trafficland.com/v2.0/200133/half?system=ddot&pubtoken=0bbe762047a7527d38e1244166e219095313a6610adbd0fd91d919c7cbe9a01f&refreshRate=2000", "lat": 38.902447, "lng": -77.046506, "refresh": 2000, "provider": "DDOT", "pindex": 1}, {"id": "200128", "name": "Pennsylvania Ave @ Alabama Ave", "image": "https://ie.trafficland.com/v2.0/200128/full?system=ddot&pubtoken=9329ee363727d20b17c471843cf60663978861d0d0fc3db36acadb1131e367eb&refreshRate=2000", "smallimage": "https://ie.trafficland.com/v2.0/200128/half?system=ddot&pubtoken=9329ee363727d20b17c471843cf60663978861d0d0fc3db36acadb1131e367eb&refreshRate=2000", "lat": 38.865477, "lng": -76.951258, "refresh": 2000, "provider": "DDOT", "pindex": 1}, {"id": "200127", "name": "Pennsylvania Ave @ Minnesota Ave", "image": "https://ie.trafficland.com/v2.0/200127/full?system=ddot&pubtoken=f01a51fd07d91c0eae21a2f6f5943aa4c64fde96b260a3a8fdfdeee5ac56ed94&refreshRate=2000", "smallimage": "https://ie.trafficland.com/v2.0/200127/half?system=ddot&pubtoken=f01a51fd07d91c0eae21a2f6f5943aa4c64fde96b260a3a8fdfdeee5ac56ed94&refreshRate=2000", "lat": 38.873333, "lng": -76.970765, "refresh": 2000, "provider": "DDOT", "pindex": 1}, {"id": "200120", "name": "Wisconsin Ave @ Nebraska Ave & Tenley Crl", "image": "https://ie.trafficland.com/v2.0/200120/full?system=ddot&pubtoken=e6816eabc101c9c7c43de785be29968b783b3a20930dbfe5751de8452cb2c26f&refreshRate=2000", "smallimage": "https://ie.trafficland.com/v2.0/200120/half?system=ddot&pubtoken=e6816eabc101c9c7c43de785be29968b783b3a20930dbfe5751de8452cb2c26f&refreshRate=2000", "lat": 38.946523, "lng": -77.079038, "refresh": 2000, "provider": "DDOT", "pindex": 1}, {"id": "200119", "name": "Connecticut Ave @ Nebraska Ave", "image": "https://ie.trafficland.com/v2.0/200119/full?system=ddot&pubtoken=f2fae0d8a0666baac37d2482f84db0b1f19103d4b9a8bc5d8acd6df0627add00&refreshRate=2000", "smallimage": "https://ie.trafficland.com/v2.0/200119/half?system=ddot&pubtoken=f2fae0d8a0666baac37d2482f84db0b1f19103d4b9a8bc5d8acd6df0627add00&refreshRate=2000", "lat": 38.955823, "lng": -77.070423, "refresh": 2000, "provider": "DDOT", "pindex": 1}, {"id": "200118", "name": "Connecticut Ave @ Oliver St", "image": "https://ie.trafficland.com/v2.0/200118/full?system=ddot&pubtoken=39204c52a1163512f989d3fcb443ee21ab2e3083470e5ccb305e85495e9eceb7&refreshRate=2000", "smallimage": "https://ie.trafficland.com/v2.0/200118/half?system=ddot&pubtoken=39204c52a1163512f989d3fcb443ee21ab2e3083470e5ccb305e85495e9eceb7&refreshRate=2000", "lat": 38.966871, "lng": -77.07672, "refresh": 2000, "provider": "DDOT", "pindex": 1}, {"id": "200112", "name": "9th St @ Constitution Ave", "image": "https://ie.trafficland.com/v2.0/200112/full?system=ddot&pubtoken=af13435c6bda64472264e6656a6a946b512a65af0bf82a1d76d4cfdbf5786ed3&refreshRate=2000", "smallimage": "https://ie.trafficland.com/v2.0/200112/half?system=ddot&pubtoken=af13435c6bda64472264e6656a6a946b512a65af0bf82a1d76d4cfdbf5786ed3&refreshRate=2000", "lat": 38.892269, "lng": -77.024097, "refresh": 2000, "provider": "DDOT", "pindex": 1}, {"id": "200111", "name": "12th St @ Constitution Ave", "image": "https://ie.trafficland.com/v2.0/200111/full?system=ddot&pubtoken=ee0c0f09ad4519ec3a86928315d00cf1e0de0a3717ddf5d86ebe14b2e0c5b643&refreshRate=2000", "smallimage": "https://ie.trafficland.com/v2.0/200111/half?system=ddot&pubtoken=ee0c0f09ad4519ec3a86928315d00cf1e0de0a3717ddf5d86ebe14b2e0c5b643&refreshRate=2000", "lat": 38.892306, "lng": -77.028276, "refresh": 2000, "provider": "DDOT", "pindex": 1}, {"id": "200110", "name": "16th St @ Missouri Ave & Military Rd", "image": "https://ie.trafficland.com/v2.0/200110/full?system=ddot&pubtoken=6375d1b2d6763fb68497e399935c7b8f771643a38637b0aec8476562aebc0728&refreshRate=2000", "smallimage": "https://ie.trafficland.com/v2.0/200110/half?system=ddot&pubtoken=6375d1b2d6763fb68497e399935c7b8f771643a38637b0aec8476562aebc0728&refreshRate=2000", "lat": 38.962442, "lng": -77.036282, "refresh": 2000, "provider": "DDOT", "pindex": 1}, {"id": "200109", "name": "Upshur St @ 16th St", "image": "https://ie.trafficland.com/v2.0/200109/full?system=ddot&pubtoken=2bdb07773099400c2a84d89b86d07f69ab3ea57f2a0b0a4d7e1ecb2b31ddea72&refreshRate=2000", "smallimage": "https://ie.trafficland.com/v2.0/200109/half?system=ddot&pubtoken=2bdb07773099400c2a84d89b86d07f69ab3ea57f2a0b0a4d7e1ecb2b31ddea72&refreshRate=2000", "lat": 38.941954, "lng": -77.036338, "refresh": 2000, "provider": "DDOT", "pindex": 1}, {"id": "200108", "name": "Georgia Ave @ Missouri Ave", "image": "https://ie.trafficland.com/v2.0/200108/full?system=ddot&pubtoken=d384b11765e108d2e152c222543f32985b5cd05c31ca25b38b48b355b4bcb4b2&refreshRate=2000", "smallimage": "https://ie.trafficland.com/v2.0/200108/half?system=ddot&pubtoken=d384b11765e108d2e152c222543f32985b5cd05c31ca25b38b48b355b4bcb4b2&refreshRate=2000", "lat": 38.961122, "lng": -77.028139, "refresh": 2000, "provider": "DDOT", "pindex": 1}, {"id": "200107", "name": "Scott Circle @ 16th St", "image": "https://ie.trafficland.com/v2.0/200107/full?system=ddot&pubtoken=9513b5dd9d9943144e527196253a2bc8efaabd5bda762747e690823f82f4a7dd&refreshRate=2000", "smallimage": "https://ie.trafficland.com/v2.0/200107/half?system=ddot&pubtoken=9513b5dd9d9943144e527196253a2bc8efaabd5bda762747e690823f82f4a7dd&refreshRate=2000", "lat": 38.907545, "lng": -77.036435, "refresh": 2000, "provider": "DDOT", "pindex": 1}, {"id": "200105", "name": "14th St @ Pennsylvania Ave", "image": "https://ie.trafficland.com/v2.0/200105/full?system=ddot&pubtoken=c3c151c5934e0ea5c8b1e1d2b6e257234dbef5c4ed0c23893f21fa4847ca20fa&refreshRate=2000", "smallimage": "https://ie.trafficland.com/v2.0/200105/half?system=ddot&pubtoken=c3c151c5934e0ea5c8b1e1d2b6e257234dbef5c4ed0c23893f21fa4847ca20fa&refreshRate=2000", "lat": 38.896254, "lng": -77.031819, "refresh": 2000, "provider": "DDOT", "pindex": 1}, {"id": "200102", "name": "Constitution Ave @ 3rd St", "image": "https://ie.trafficland.com/v2.0/200102/full?system=ddot&pubtoken=b749555b2d70722a1b3a4a5042475046746f0abae81f3ff3997aad4083c95697&refreshRate=2000", "smallimage": "https://ie.trafficland.com/v2.0/200102/half?system=ddot&pubtoken=b749555b2d70722a1b3a4a5042475046746f0abae81f3ff3997aad4083c95697&refreshRate=2000", "lat": 38.891961, "lng": -77.014981, "refresh": 2000, "provider": "DDOT", "pindex": 1}, {"id": "200091", "name": "Rhode Island Ave @ 18th St", "image": "https://ie.trafficland.com/v2.0/200091/full?system=ddot&pubtoken=d499a1f8fb5c772a7623876ad01a635c17ad5d4bef038d8986de5027ad1f8d33&refreshRate=2000", "smallimage": "https://ie.trafficland.com/v2.0/200091/half?system=ddot&pubtoken=d499a1f8fb5c772a7623876ad01a635c17ad5d4bef038d8986de5027ad1f8d33&refreshRate=2000", "lat": 38.927619, "lng": -76.979231, "refresh": 2000, "provider": "DDOT", "pindex": 1}, {"id": "200064", "name": "Pennsylvania Ave @ 8th St", "image": "https://ie.trafficland.com/v2.0/200064/full?system=ddot&pubtoken=2e6d7a0f68409225321b5c5653a0b644a4c383c83719cae53455a3432398748c&refreshRate=2000", "smallimage": "https://ie.trafficland.com/v2.0/200064/half?system=ddot&pubtoken=2e6d7a0f68409225321b5c5653a0b644a4c383c83719cae53455a3432398748c&refreshRate=2000", "lat": 38.8841, "lng": -76.994872, "refresh": 2000, "provider": "DDOT", "pindex": 1}, {"id": "200062", "name": "Pennsylvania Ave @ 2nd St & Independence Ave", "image": "https://ie.trafficland.com/v2.0/200062/full?system=ddot&pubtoken=1171235232e784b2045d5468f2e8f325022094091dd29dd16e4810541dde73bb&refreshRate=2000", "smallimage": "https://ie.trafficland.com/v2.0/200062/half?system=ddot&pubtoken=1171235232e784b2045d5468f2e8f325022094091dd29dd16e4810541dde73bb&refreshRate=2000", "lat": 38.887721, "lng": -77.003454, "refresh": 2000, "provider": "DDOT", "pindex": 1}, {"id": "200058", "name": "16th St @ Colorado Ave", "image": "https://ie.trafficland.com/v2.0/200058/full?system=ddot&pubtoken=86cd6f864ee452b3af138b57acb247283719f97889eb4eb2a120dd7945db3c2f&refreshRate=2000", "smallimage": "https://ie.trafficland.com/v2.0/200058/half?system=ddot&pubtoken=86cd6f864ee452b3af138b57acb247283719f97889eb4eb2a120dd7945db3c2f&refreshRate=2000", "lat": 38.952255, "lng": -77.036513, "refresh": 2000, "provider": "DDOT", "pindex": 1}, {"id": "200149", "name": "16th St @ Alaska Ave", "image": "https://ie.trafficland.com/v2.0/200149/full?system=ddot&pubtoken=5c775732dfb5c7fd5bd3e561367b26a489f4c8b545bb0b5d3f17431ad472edfd&refreshRate=2000", "smallimage": "https://ie.trafficland.com/v2.0/200149/half?system=ddot&pubtoken=5c775732dfb5c7fd5bd3e561367b26a489f4c8b545bb0b5d3f17431ad472edfd&refreshRate=2000", "lat": 38.975112, "lng": -77.036258, "refresh": 2000, "provider": "DDOT", "pindex": 1}, {"id": "200148", "name": "14th St @ New York Ave", "image": "https://ie.trafficland.com/v2.0/200148/full?system=ddot&pubtoken=39549f0aee05661662819c8ce1bf5848bdf6a65c17be8a0bcad5dff0ef757c55&refreshRate=2000", "smallimage": "https://ie.trafficland.com/v2.0/200148/half?system=ddot&pubtoken=39549f0aee05661662819c8ce1bf5848bdf6a65c17be8a0bcad5dff0ef757c55&refreshRate=2000", "lat": 38.899637, "lng": -77.031821, "refresh": 2000, "provider": "DDOT", "pindex": 1}, {"id": "200147", "name": "H St @ 14th St", "image": "https://ie.trafficland.com/v2.0/200147/full?system=ddot&pubtoken=907aa9cb00ff359645f9872178bea85dff49c799199bd6123412303eba5957fc&refreshRate=2000", "smallimage": "https://ie.trafficland.com/v2.0/200147/half?system=ddot&pubtoken=907aa9cb00ff359645f9872178bea85dff49c799199bd6123412303eba5957fc&refreshRate=2000", "lat": 38.900149, "lng": -77.03176, "refresh": 2000, "provider": "DDOT", "pindex": 1}, {"id": "200167", "name": "Canal Rd @ Chain Brdg Rd", "image": "https://ie.trafficland.com/v2.0/200167/full?system=ddot&pubtoken=fb36febec81f9cde8507815cadf1d656628c7cc750fc66cc92ada1358a0bcc3f&refreshRate=2000", "smallimage": "https://ie.trafficland.com/v2.0/200167/half?system=ddot&pubtoken=fb36febec81f9cde8507815cadf1d656628c7cc750fc66cc92ada1358a0bcc3f&refreshRate=2000", "lat": 38.930399, "lng": -77.111757, "refresh": 2000, "provider": "DDOT", "pindex": 1}, {"id": "200072", "name": "K St @ 19th St", "image": "https://ie.trafficland.com/v2.0/200072/full?system=ddot&pubtoken=f5f29647c9ab5b43889076d0080631e8c6d85f2f9f73f4622a9d7702392406be&refreshRate=2000", "smallimage": "https://ie.trafficland.com/v2.0/200072/half?system=ddot&pubtoken=f5f29647c9ab5b43889076d0080631e8c6d85f2f9f73f4622a9d7702392406be&refreshRate=2000", "lat": 38.902605, "lng": -77.043605, "refresh": 2000, "provider": "DDOT", "pindex": 1}, {"id": "200123", "name": "MacArthur Blvd @ Arizona Ave", "image": "https://ie.trafficland.com/v2.0/200123/full?system=ddot&pubtoken=6e83793943a804457536d6c7a0162ac1f4fa38bf2890b3dcbb56d27fbf29769e&refreshRate=2000", "smallimage": "https://ie.trafficland.com/v2.0/200123/half?system=ddot&pubtoken=6e83793943a804457536d6c7a0162ac1f4fa38bf2890b3dcbb56d27fbf29769e&refreshRate=2000", "lat": 38.927211, "lng": -77.104071, "refresh": 2000, "provider": "DDOT", "pindex": 1}, {"id": "200122", "name": "Connecticut Ave @ Van Ness St", "image": "https://ie.trafficland.com/v2.0/200122/full?system=ddot&pubtoken=34dc2777190e8879fac58b31ae1997fb0f6ad6e7b6836d53300c387627ec7324&refreshRate=2000", "smallimage": "https://ie.trafficland.com/v2.0/200122/half?system=ddot&pubtoken=34dc2777190e8879fac58b31ae1997fb0f6ad6e7b6836d53300c387627ec7324&refreshRate=2000", "lat": 38.943035, "lng": -77.062978, "refresh": 2000, "provider": "DDOT", "pindex": 1}, {"id": "200121", "name": "Wisconsin Ave @ Calvert St", "image": "https://ie.trafficland.com/v2.0/200121/full?system=ddot&pubtoken=d1565b25807e7b0424161a0a047d8b33716a353fb42055915675448f29d25f2d&refreshRate=2000", "smallimage": "https://ie.trafficland.com/v2.0/200121/half?system=ddot&pubtoken=d1565b25807e7b0424161a0a047d8b33716a353fb42055915675448f29d25f2d&refreshRate=2000", "lat": 38.922461, "lng": -77.073002, "refresh": 2000, "provider": "DDOT", "pindex": 1}, {"id": "200049", "name": "Connecticut Ave @ Florida Ave", "image": "https://ie.trafficland.com/v2.0/200049/full?system=ddot&pubtoken=88525840f52775262af838447a59d8848683b20aaa5882019d0cca2c2b872d49&refreshRate=2000", "smallimage": "https://ie.trafficland.com/v2.0/200049/half?system=ddot&pubtoken=88525840f52775262af838447a59d8848683b20aaa5882019d0cca2c2b872d49&refreshRate=2000", "lat": 38.914016, "lng": -77.04618, "refresh": 2000, "provider": "DDOT", "pindex": 1}, {"id": "200048", "name": "Connecticut Ave @ Macomb St", "image": "https://ie.trafficland.com/v2.0/200048/full?system=ddot&pubtoken=1a1cbb3c16622660ef239cce050a94cbf88c8eb00c5e0f9f2479b7b2285959dd&refreshRate=2000", "smallimage": "https://ie.trafficland.com/v2.0/200048/half?system=ddot&pubtoken=1a1cbb3c16622660ef239cce050a94cbf88c8eb00c5e0f9f2479b7b2285959dd&refreshRate=2000", "lat": 38.933615, "lng": -77.057259, "refresh": 2000, "provider": "DDOT", "pindex": 1}, {"id": "200043", "name": "Canal Rd @ Foxhall Rd", "image": "https://ie.trafficland.com/v2.0/200043/full?system=ddot&pubtoken=ff34f56e792931bd9c70d152ee1cbe0b3f9826cce1e5361ca4064afb4744a3b8&refreshRate=2000", "smallimage": "https://ie.trafficland.com/v2.0/200043/half?system=ddot&pubtoken=ff34f56e792931bd9c70d152ee1cbe0b3f9826cce1e5361ca4064afb4744a3b8&refreshRate=2000", "lat": 38.905852, "lng": -77.079084, "refresh": 2000, "provider": "DDOT", "pindex": 1}, {"id": "200042", "name": "Wisconsin Ave @ Massachusetts Ave", "image": "https://ie.trafficland.com/v2.0/200042/full?system=ddot&pubtoken=256db9b01f0cfc175fb5f44e6b026444d16a0512bc4ad0da0c226da02cc652ea&refreshRate=2000", "smallimage": "https://ie.trafficland.com/v2.0/200042/half?system=ddot&pubtoken=256db9b01f0cfc175fb5f44e6b026444d16a0512bc4ad0da0c226da02cc652ea&refreshRate=2000", "lat": 38.928829, "lng": -77.073308, "refresh": 2000, "provider": "DDOT", "pindex": 1}, {"id": "200161", "name": "I St @ 16th St", "image": "https://ie.trafficland.com/v2.0/200161/full?system=ddot&pubtoken=2ac198f708ac0aa4c094fc762ff65423eb64af6f07b50a7afc521e7b4744cbfb&refreshRate=2000", "smallimage": "https://ie.trafficland.com/v2.0/200161/half?system=ddot&pubtoken=2ac198f708ac0aa4c094fc762ff65423eb64af6f07b50a7afc521e7b4744cbfb&refreshRate=2000", "lat": 38.901271, "lng": -77.036423, "refresh": 2000, "provider": "DDOT", "pindex": 1}, {"id": "200160", "name": "I St @ 17th St", "image": "https://ie.trafficland.com/v2.0/200160/full?system=ddot&pubtoken=45ad63017415484ca9fa0e961c10c12a3f838695577e4ad60b2776deb3e56cbf&refreshRate=2000", "smallimage": "https://ie.trafficland.com/v2.0/200160/half?system=ddot&pubtoken=45ad63017415484ca9fa0e961c10c12a3f838695577e4ad60b2776deb3e56cbf&refreshRate=2000", "lat": 38.901273, "lng": -77.039281, "refresh": 2000, "provider": "DDOT", "pindex": 1}, {"id": "200159", "name": "18th St @ I St", "image": "https://ie.trafficland.com/v2.0/200159/full?system=ddot&pubtoken=4e71ba4f5dfee6f915b8af3810fab68ece12e0e88c662fe268afd755e66eca7b&refreshRate=2000", "smallimage": "https://ie.trafficland.com/v2.0/200159/half?system=ddot&pubtoken=4e71ba4f5dfee6f915b8af3810fab68ece12e0e88c662fe268afd755e66eca7b&refreshRate=2000", "lat": 38.901243, "lng": -77.041782, "refresh": 2000, "provider": "DDOT", "pindex": 1}, {"id": "200158", "name": "13th St @ I St", "image": "https://ie.trafficland.com/v2.0/200158/full?system=ddot&pubtoken=04d1448194a4f266e1845b6f7bd2c07273b3de9c923df6d2e59d4c9fef998ca7&refreshRate=2000", "smallimage": "https://ie.trafficland.com/v2.0/200158/half?system=ddot&pubtoken=04d1448194a4f266e1845b6f7bd2c07273b3de9c923df6d2e59d4c9fef998ca7&refreshRate=2000", "lat": 38.901434, "lng": -77.029495, "refresh": 2000, "provider": "DDOT", "pindex": 1}, {"id": "200156", "name": "15th St @ New York Ave & Pennsylvania Ave", "image": "https://ie.trafficland.com/v2.0/200156/full?system=ddot&pubtoken=3d097acf30db08e4c6c4449073ea51d11e53ef32edb9a133d2e7e55a4f4c4687&refreshRate=2000", "smallimage": "https://ie.trafficland.com/v2.0/200156/half?system=ddot&pubtoken=3d097acf30db08e4c6c4449073ea51d11e53ef32edb9a133d2e7e55a4f4c4687&refreshRate=2000", "lat": 38.898586, "lng": -77.033779, "refresh": 2000, "provider": "DDOT", "pindex": 1}, {"id": "200155", "name": "H St @ Vermont Ave & Madison Pl", "image": "https://ie.trafficland.com/v2.0/200155/full?system=ddot&pubtoken=b0a9a3be91543310c55765a08be6dad792feb0abc2eef5087de6a2a39ad34f7b&refreshRate=2000", "smallimage": "https://ie.trafficland.com/v2.0/200155/half?system=ddot&pubtoken=b0a9a3be91543310c55765a08be6dad792feb0abc2eef5087de6a2a39ad34f7b&refreshRate=2000", "lat": 38.900124, "lng": -77.035025, "refresh": 2000, "provider": "DDOT", "pindex": 1}, {"id": "200154", "name": "H St @ Connecticut Ave & Jackson Pl", "image": "https://ie.trafficland.com/v2.0/200154/full?system=ddot&pubtoken=e620c43514c197db41ab7f93634fb8accab46c6d6bed5832e4519a5582885429&refreshRate=2000", "smallimage": "https://ie.trafficland.com/v2.0/200154/half?system=ddot&pubtoken=e620c43514c197db41ab7f93634fb8accab46c6d6bed5832e4519a5582885429&refreshRate=2000", "lat": 38.900293, "lng": -77.038145, "refresh": 2000, "provider": "DDOT", "pindex": 1}, {"id": "200153", "name": "Pennsylvania Ave @ 21st St", "image": "https://ie.trafficland.com/v2.0/200153/full?system=ddot&pubtoken=a848069a416f4a6d273cccc08c52fa55a75301896c33d59ebc6b19bb70528463&refreshRate=2000", "smallimage": "https://ie.trafficland.com/v2.0/200153/half?system=ddot&pubtoken=a848069a416f4a6d273cccc08c52fa55a75301896c33d59ebc6b19bb70528463&refreshRate=2000", "lat": 38.901154, "lng": -77.046554, "refresh": 2000, "provider": "DDOT", "pindex": 1}, {"id": "200152", "name": "19th St @ Pennsylvania Ave", "image": "https://ie.trafficland.com/v2.0/200152/full?system=ddot&pubtoken=10d2a5d12957cd7a1a39d16d6dfa7c9d7c600e1e04af445deb339152a19f76b3&refreshRate=2000", "smallimage": "https://ie.trafficland.com/v2.0/200152/half?system=ddot&pubtoken=10d2a5d12957cd7a1a39d16d6dfa7c9d7c600e1e04af445deb339152a19f76b3&refreshRate=2000", "lat": 38.900371, "lng": -77.043592, "refresh": 2000, "provider": "DDOT", "pindex": 1}, {"id": "200041", "name": "Whitehurst Fwy @ 27th St & K St", "image": "https://ie.trafficland.com/v2.0/200041/full?system=ddot&pubtoken=b80cca3a2a79d3463d51f4c59b199421f20429c8341aa128bf71690fb5fb8628&refreshRate=2000", "smallimage": "https://ie.trafficland.com/v2.0/200041/half?system=ddot&pubtoken=b80cca3a2a79d3463d51f4c59b199421f20429c8341aa128bf71690fb5fb8628&refreshRate=2000", "lat": 38.90236, "lng": -77.056277, "refresh": 2000, "provider": "DDOT", "pindex": 1}, {"id": "200039", "name": "Dupont Circle @ Connecticut Ave", "image": "https://ie.trafficland.com/v2.0/200039/full?system=ddot&pubtoken=03832cbdbd3b3b0b70ec00b7c68d9e4f88f161fbcb47dd87392ea6efd6de7dc0&refreshRate=2000", "smallimage": "https://ie.trafficland.com/v2.0/200039/half?system=ddot&pubtoken=03832cbdbd3b3b0b70ec00b7c68d9e4f88f161fbcb47dd87392ea6efd6de7dc0&refreshRate=2000", "lat": 38.910295, "lng": -77.043674, "refresh": 2000, "provider": "DDOT", "pindex": 1}, {"id": "200037", "name": "E Capitol St @ Southern Ave", "image": "https://ie.trafficland.com/v2.0/200037/full?system=ddot&pubtoken=e67946309aced389969933e390b1740fd33dee3d5b6557906f4943531fe17016&refreshRate=2000", "smallimage": "https://ie.trafficland.com/v2.0/200037/half?system=ddot&pubtoken=e67946309aced389969933e390b1740fd33dee3d5b6557906f4943531fe17016&refreshRate=2000", "lat": 38.889616, "lng": -76.913367, "refresh": 2000, "provider": "DDOT", "pindex": 1}, {"id": "200036", "name": "Pennsylvania Ave @ 7th St", "image": "https://ie.trafficland.com/v2.0/200036/full?system=ddot&pubtoken=5989047fe911c0139d94142f6bdac928d49a548991debe0026bdde8601219cee&refreshRate=2000", "smallimage": "https://ie.trafficland.com/v2.0/200036/half?system=ddot&pubtoken=5989047fe911c0139d94142f6bdac928d49a548991debe0026bdde8601219cee&refreshRate=2000", "lat": 38.893522, "lng": -77.022118, "refresh": 2000, "provider": "DDOT", "pindex": 1}, {"id": "200035", "name": "Benning Rd @ Minnesota Ave", "image": "https://ie.trafficland.com/v2.0/200035/full?system=ddot&pubtoken=5d52e4460ab6a584081bc5117827e5d9c716dc6ba09ae41b2873febd97b96745&refreshRate=2000", "smallimage": "https://ie.trafficland.com/v2.0/200035/half?system=ddot&pubtoken=5d52e4460ab6a584081bc5117827e5d9c716dc6ba09ae41b2873febd97b96745&refreshRate=2000", "lat": 38.895112, "lng": -76.94945, "refresh": 2000, "provider": "DDOT", "pindex": 1}, {"id": "200034", "name": "E Capitol St @ Benning Rd", "image": "https://ie.trafficland.com/v2.0/200034/full?system=ddot&pubtoken=253fb4d6ea0d4555154b6b9ff8c20db2dd66a3eac49b358540213f063aa0e473&refreshRate=2000", "smallimage": "https://ie.trafficland.com/v2.0/200034/half?system=ddot&pubtoken=253fb4d6ea0d4555154b6b9ff8c20db2dd66a3eac49b358540213f063aa0e473&refreshRate=2000", "lat": 38.889599, "lng": -76.937291, "refresh": 2000, "provider": "DDOT", "pindex": 1}, {"id": "200032", "name": "Rhode Island Ave @ S Dakota Ave", "image": "https://ie.trafficland.com/v2.0/200032/full?system=ddot&pubtoken=8fe871e29a27b63233671485675129f8bf6cca9eda8f3f04a75a4a2ca766a9ba&refreshRate=2000", "smallimage": "https://ie.trafficland.com/v2.0/200032/half?system=ddot&pubtoken=8fe871e29a27b63233671485675129f8bf6cca9eda8f3f04a75a4a2ca766a9ba&refreshRate=2000", "lat": 38.931351, "lng": -76.971433, "refresh": 2000, "provider": "DDOT", "pindex": 1}, {"id": "200031", "name": "Maryland Ave @ H St & Benning Rd", "image": "https://ie.trafficland.com/v2.0/200031/full?system=ddot&pubtoken=47aa6b65ff8a8e9a4357fe353163e1f22af52e3610819e0963a160167386b671&refreshRate=2000", "smallimage": "https://ie.trafficland.com/v2.0/200031/half?system=ddot&pubtoken=47aa6b65ff8a8e9a4357fe353163e1f22af52e3610819e0963a160167386b671&refreshRate=2000", "lat": 38.900211, "lng": -76.982939, "refresh": 2000, "provider": "DDOT", "pindex": 1}, {"id": "200030", "name": "Connecticut Ave @ Calvert St", "image": "https://ie.trafficland.com/v2.0/200030/full?system=ddot&pubtoken=316355f01d041dfe7e1e835e59d5bdcdd42a68f59a4c200d0c0f14170496be98&refreshRate=2000", "smallimage": "https://ie.trafficland.com/v2.0/200030/half?system=ddot&pubtoken=316355f01d041dfe7e1e835e59d5bdcdd42a68f59a4c200d0c0f14170496be98&refreshRate=2000", "lat": 38.92368, "lng": -77.051737, "refresh": 2000, "provider": "DDOT", "pindex": 1}, {"id": "200023", "name": "Independence Ave @ 7th St", "image": "https://ie.trafficland.com/v2.0/200023/full?system=ddot&pubtoken=9e7ee4c906f4f628b037de6bf9f1bbc53f5715de87561061c2097a2211ebc6f4&refreshRate=2000", "smallimage": "https://ie.trafficland.com/v2.0/200023/half?system=ddot&pubtoken=9e7ee4c906f4f628b037de6bf9f1bbc53f5715de87561061c2097a2211ebc6f4&refreshRate=2000", "lat": 38.887455, "lng": -77.022099, "refresh": 2000, "provider": "DDOT", "pindex": 1}, {"id": "200021", "name": "New York Ave @ Bladensburg Rd", "image": "https://ie.trafficland.com/v2.0/200021/full?system=ddot&pubtoken=23f471f4596d8bb759ff806839de8ffb64dc425f9d67994b909d9ab264bbdba5&refreshRate=2000", "smallimage": "https://ie.trafficland.com/v2.0/200021/half?system=ddot&pubtoken=23f471f4596d8bb759ff806839de8ffb64dc425f9d67994b909d9ab264bbdba5&refreshRate=2000", "lat": 38.917474, "lng": -76.972542, "refresh": 2000, "provider": "DDOT", "pindex": 1}, {"id": "200020", "name": "Pennsylvania Ave @ SE Fwy", "image": "https://ie.trafficland.com/v2.0/200020/full?system=ddot&pubtoken=bb13ab3e43ee26a29c392ecdc8ee63117d79216d44b74d4d1cea0789b091dd61&refreshRate=2000", "smallimage": "https://ie.trafficland.com/v2.0/200020/half?system=ddot&pubtoken=bb13ab3e43ee26a29c392ecdc8ee63117d79216d44b74d4d1cea0789b091dd61&refreshRate=2000", "lat": 38.877887, "lng": -76.980316, "refresh": 2000, "provider": "DDOT", "pindex": 1}, {"id": "200019", "name": "S Capitol St @ Suitland Pkwy", "image": "https://ie.trafficland.com/v2.0/200019/full?system=ddot&pubtoken=4077cda94ea9b74a4cdff3d75ca683b8713bde7b79202c418fcc665601ff7783&refreshRate=2000", "smallimage": "https://ie.trafficland.com/v2.0/200019/half?system=ddot&pubtoken=4077cda94ea9b74a4cdff3d75ca683b8713bde7b79202c418fcc665601ff7783&refreshRate=2000", "lat": 38.865266, "lng": -77.001454, "refresh": 2000, "provider": "DDOT", "pindex": 1}, {"id": "200018", "name": "Georgia Ave @ Kansas Ave", "image": "https://ie.trafficland.com/v2.0/200018/full?system=ddot&pubtoken=236f6b22d6f05eda935720ec9022f4407c69e75ddaf1a839e34fa8099da3c928&refreshRate=2000", "smallimage": "https://ie.trafficland.com/v2.0/200018/half?system=ddot&pubtoken=236f6b22d6f05eda935720ec9022f4407c69e75ddaf1a839e34fa8099da3c928&refreshRate=2000", "lat": 38.942045, "lng": -77.025678, "refresh": 2000, "provider": "DDOT", "pindex": 1}, {"id": "200143", "name": "7th St @ Frontage St", "image": "https://ie.trafficland.com/v2.0/200143/full?system=ddot&pubtoken=ecf5ebd48702f2948a6194535da18beaa59c9ee38da9b3e0b4c5c7ef33e7f1b9&refreshRate=2000", "smallimage": "https://ie.trafficland.com/v2.0/200143/half?system=ddot&pubtoken=ecf5ebd48702f2948a6194535da18beaa59c9ee38da9b3e0b4c5c7ef33e7f1b9&refreshRate=2000", "lat": 38.88278, "lng": -77.022148, "refresh": 2000, "provider": "DDOT", "pindex": 1}, {"id": "200140", "name": "Wisconsin Ave @ Q St", "image": "https://ie.trafficland.com/v2.0/200140/full?system=ddot&pubtoken=9c14b2b0d8c4ea7a3f929c57b2073ba7b3440e8158c69c1d08b22ae9bb959278&refreshRate=2000", "smallimage": "https://ie.trafficland.com/v2.0/200140/half?system=ddot&pubtoken=9c14b2b0d8c4ea7a3f929c57b2073ba7b3440e8158c69c1d08b22ae9bb959278&refreshRate=2000", "lat": 38.910701, "lng": -77.065184, "refresh": 2000, "provider": "DDOT", "pindex": 1}, {"id": "200139", "name": "Georgia Ave @ Arkansas Ave", "image": "https://ie.trafficland.com/v2.0/200139/full?system=ddot&pubtoken=3ae826653735cde558f95cf1e6cd098bc301beb73ed9f5d680c12a0ba1fca955&refreshRate=2000", "smallimage": "https://ie.trafficland.com/v2.0/200139/half?system=ddot&pubtoken=3ae826653735cde558f95cf1e6cd098bc301beb73ed9f5d680c12a0ba1fca955&refreshRate=2000", "lat": 38.951619, "lng": -77.027279, "refresh": 2000, "provider": "DDOT", "pindex": 1}, {"id": "200138", "name": "Constitution Ave @ 23rd St", "image": "https://ie.trafficland.com/v2.0/200138/full?system=ddot&pubtoken=099df2e7001365889e26936ba18c115b55eba8cc11fc17e522940fb93a017c51&refreshRate=2000", "smallimage": "https://ie.trafficland.com/v2.0/200138/half?system=ddot&pubtoken=099df2e7001365889e26936ba18c115b55eba8cc11fc17e522940fb93a017c51&refreshRate=2000", "lat": 38.891985, "lng": -77.049949, "refresh": 2000, "provider": "DDOT", "pindex": 1}, {"id": "200137", "name": "Constitution Ave @ 17th St", "image": "https://ie.trafficland.com/v2.0/200137/full?system=ddot&pubtoken=101f8e0382decf7b7323586d0be8eed38c553f8fe3654faba7c2e3be52105ddf&refreshRate=2000", "smallimage": "https://ie.trafficland.com/v2.0/200137/half?system=ddot&pubtoken=101f8e0382decf7b7323586d0be8eed38c553f8fe3654faba7c2e3be52105ddf&refreshRate=2000", "lat": 38.892221, "lng": -77.039654, "refresh": 2000, "provider": "DDOT", "pindex": 1}, {"id": "200136", "name": "New York Ave @ New Jersey Ave", "image": "https://ie.trafficland.com/v2.0/200136/full?system=ddot&pubtoken=80a792a941d9f92207fd308e97ab98918ffbd28435b1feb7edb09c87ddfafde2&refreshRate=2000", "smallimage": "https://ie.trafficland.com/v2.0/200136/half?system=ddot&pubtoken=80a792a941d9f92207fd308e97ab98918ffbd28435b1feb7edb09c87ddfafde2&refreshRate=2000", "lat": 38.905163, "lng": -77.015014, "refresh": 2000, "provider": "DDOT", "pindex": 1}, {"id": "200162", "name": "13th St @ H St & New York Ave", "image": "https://ie.trafficland.com/v2.0/200162/full?system=ddot&pubtoken=8c2a1d7529107df05a22b27d8287ed2517467b2985d83ea21f45f1d0287ec168&refreshRate=2000", "smallimage": "https://ie.trafficland.com/v2.0/200162/half?system=ddot&pubtoken=8c2a1d7529107df05a22b27d8287ed2517467b2985d83ea21f45f1d0287ec168&refreshRate=2000", "lat": 38.900007, "lng": -77.02976, "refresh": 2000, "provider": "DDOT", "pindex": 1}, {"id": "200166", "name": "Whitehaven St @ Massachusetts Ave", "image": "https://ie.trafficland.com/v2.0/200166/full?system=ddot&pubtoken=76e75e5d6e6f7aaf93a2cb4dd0c1c80b3e4c9e89d8b4fbd8e3370d49c8dc0e20&refreshRate=2000", "smallimage": "https://ie.trafficland.com/v2.0/200166/half?system=ddot&pubtoken=76e75e5d6e6f7aaf93a2cb4dd0c1c80b3e4c9e89d8b4fbd8e3370d49c8dc0e20&refreshRate=2000", "lat": 38.918257, "lng": -77.05929, "refresh": 2000, "provider": "DDOT", "pindex": 1}, {"id": "200165", "name": "15th St @ Pennsylvania Ave & E St", "image": "https://ie.trafficland.com/v2.0/200165/full?system=ddot&pubtoken=728e32caf06e7f0bd4fed5073cf6940f4ce258c7d5e95ea1992bfbbfda3edc87&refreshRate=2000", "smallimage": "https://ie.trafficland.com/v2.0/200165/half?system=ddot&pubtoken=728e32caf06e7f0bd4fed5073cf6940f4ce258c7d5e95ea1992bfbbfda3edc87&refreshRate=2000", "lat": 38.895718, "lng": -77.0335, "refresh": 2000, "provider": "DDOT", "pindex": 1}, {"id": "200164", "name": "15th St @ K St", "image": "https://ie.trafficland.com/v2.0/200164/full?system=ddot&pubtoken=3213372952e4627d624812da250b11d62c4efee5357a6301798cb388166bf204&refreshRate=2000", "smallimage": "https://ie.trafficland.com/v2.0/200164/half?system=ddot&pubtoken=3213372952e4627d624812da250b11d62c4efee5357a6301798cb388166bf204&refreshRate=2000", "lat": 38.902393, "lng": -77.033758, "refresh": 2000, "provider": "DDOT", "pindex": 1}, {"id": "200163", "name": "K St @ 13th St", "image": "https://ie.trafficland.com/v2.0/200163/full?system=ddot&pubtoken=ffe15cb334a44c26618c46b271000d503f2c1e40446164e7ee472e9dac387f5e&refreshRate=2000", "smallimage": "https://ie.trafficland.com/v2.0/200163/half?system=ddot&pubtoken=ffe15cb334a44c26618c46b271000d503f2c1e40446164e7ee472e9dac387f5e&refreshRate=2000", "lat": 38.9026, "lng": -77.029788, "refresh": 2000, "provider": "DDOT", "pindex": 1}, {"id": "200016", "name": "16th St @ Irving St", "image": "https://ie.trafficland.com/v2.0/200016/full?system=ddot&pubtoken=0e23b939bc91a249bcb2259c9a981fb7bf14a7c8d10cf65a155bae849810b934&refreshRate=2000", "smallimage": "https://ie.trafficland.com/v2.0/200016/half?system=ddot&pubtoken=0e23b939bc91a249bcb2259c9a981fb7bf14a7c8d10cf65a155bae849810b934&refreshRate=2000", "lat": 38.928585, "lng": -77.036372, "refresh": 2000, "provider": "DDOT", "pindex": 1}, {"id": "200015", "name": "Georgia Ave @ Eastern Ave", "image": "https://ie.trafficland.com/v2.0/200015/full?system=ddot&pubtoken=eefbbaee7e6348e62d877447ca7833cc918f3cbaa2e6446fcf81582e9c728ec5&refreshRate=2000", "smallimage": "https://ie.trafficland.com/v2.0/200015/half?system=ddot&pubtoken=eefbbaee7e6348e62d877447ca7833cc918f3cbaa2e6446fcf81582e9c728ec5&refreshRate=2000", "lat": 38.984507, "lng": -77.02673, "refresh": 2000, "provider": "DDOT", "pindex": 1}, {"id": "200014", "name": "16th St @ Columbia Rd", "image": "https://ie.trafficland.com/v2.0/200014/full?system=ddot&pubtoken=fa1f99dd5f6274a2faec6417cdc0d474ac24f1d8ab5aecd15459ad8703fc2b0e&refreshRate=2000", "smallimage": "https://ie.trafficland.com/v2.0/200014/half?system=ddot&pubtoken=fa1f99dd5f6274a2faec6417cdc0d474ac24f1d8ab5aecd15459ad8703fc2b0e&refreshRate=2000", "lat": 38.926386, "lng": -77.036587, "refresh": 2000, "provider": "DDOT", "pindex": 1}, {"id": "200013", "name": "16th St @ U St", "image": "https://ie.trafficland.com/v2.0/200013/full?system=ddot&pubtoken=d3f1c57240672a7de723bc2750d683a160f04c4e7fb4d0c92bae7164bf88325a&refreshRate=2000", "smallimage": "https://ie.trafficland.com/v2.0/200013/half?system=ddot&pubtoken=d3f1c57240672a7de723bc2750d683a160f04c4e7fb4d0c92bae7164bf88325a&refreshRate=2000", "lat": 38.917113, "lng": -77.036378, "refresh": 2000, "provider": "DDOT", "pindex": 1}, {"id": "200012", "name": "Georgia Ave @ Irving St", "image": "https://ie.trafficland.com/v2.0/200012/full?system=ddot&pubtoken=f3ede3c5f7e2e06c1678046561cf61a5c898e6133ca41e744a4758587d5c454a&refreshRate=2000", "smallimage": "https://ie.trafficland.com/v2.0/200012/half?system=ddot&pubtoken=f3ede3c5f7e2e06c1678046561cf61a5c898e6133ca41e744a4758587d5c454a&refreshRate=2000", "lat": 38.928978, "lng": -77.023337, "refresh": 2000, "provider": "DDOT", "pindex": 1}, {"id": "200011", "name": "Ist St @ Delaware Ave", "image": "https://ie.trafficland.com/v2.0/200011/full?system=ddot&pubtoken=225fbe7ed21dfdeea80149146700993872f36ce9137d2092baf11fa8c59261b7&refreshRate=2000", "smallimage": "https://ie.trafficland.com/v2.0/200011/half?system=ddot&pubtoken=225fbe7ed21dfdeea80149146700993872f36ce9137d2092baf11fa8c59261b7&refreshRate=2000", "lat": 38.879356, "lng": -77.013071, "refresh": 2000, "provider": "DDOT", "pindex": 1}, {"id": "200007", "name": "4th St @ New York Ave", "image": "https://ie.trafficland.com/v2.0/200007/full?system=ddot&pubtoken=f6e5fb8bc5b8cc19979f816658fad4322c2fd63822d1b0529403d1f2729504ac&refreshRate=2000", "smallimage": "https://ie.trafficland.com/v2.0/200007/half?system=ddot&pubtoken=f6e5fb8bc5b8cc19979f816658fad4322c2fd63822d1b0529403d1f2729504ac&refreshRate=2000", "lat": 38.904965, "lng": -77.016301, "refresh": 2000, "provider": "DDOT", "pindex": 1}, {"id": "200006", "name": "Eastern Ave @ Kenilworth Ave", "image": "https://ie.trafficland.com/v2.0/200006/full?system=ddot&pubtoken=7e3cf812d47f5e2642bd4f02db93af390cd07553146a93be2a04f3e5422d521a&refreshRate=2000", "smallimage": "https://ie.trafficland.com/v2.0/200006/half?system=ddot&pubtoken=7e3cf812d47f5e2642bd4f02db93af390cd07553146a93be2a04f3e5422d521a&refreshRate=2000", "lat": 38.91218, "lng": -76.934167, "refresh": 2000, "provider": "DDOT", "pindex": 1}, {"id": "200005", "name": "Florida Ave @ New York Ave", "image": "https://ie.trafficland.com/v2.0/200005/full?system=ddot&pubtoken=f941613c6e99f2a30d94d3dcb87cd3df7f431bec3fb6728eeae2584de98cffcf&refreshRate=2000", "smallimage": "https://ie.trafficland.com/v2.0/200005/half?system=ddot&pubtoken=f941613c6e99f2a30d94d3dcb87cd3df7f431bec3fb6728eeae2584de98cffcf&refreshRate=2000", "lat": 38.909042, "lng": -77.004583, "refresh": 2000, "provider": "DDOT", "pindex": 1}, {"id": "200004", "name": "M St @ S Capitol St", "image": "https://ie.trafficland.com/v2.0/200004/full?system=ddot&pubtoken=145a812219fbf523a7fb725a059e1075f19cb73d0d317968620e891ef47f16c6&refreshRate=2000", "smallimage": "https://ie.trafficland.com/v2.0/200004/half?system=ddot&pubtoken=145a812219fbf523a7fb725a059e1075f19cb73d0d317968620e891ef47f16c6&refreshRate=2000", "lat": 38.876366, "lng": -77.009061, "refresh": 2000, "provider": "DDOT", "pindex": 1}, {"id": "200009", "name": "14th St Brdg", "image": "https://ie.trafficland.com/v2.0/200009/full?system=ddot&pubtoken=3e666b72064e4868288669c482bc347ec01f7e5fb33a9e01b100999e793f8a4a&refreshRate=2000", "smallimage": "https://ie.trafficland.com/v2.0/200009/half?system=ddot&pubtoken=3e666b72064e4868288669c482bc347ec01f7e5fb33a9e01b100999e793f8a4a&refreshRate=2000", "lat": 38.882427, "lng": -77.032657, "refresh": 2000, "provider": "DDOT", "pindex": 1}, {"id": "200003", "name": "M St @ Francis Scott Key Brdg", "image": "https://ie.trafficland.com/v2.0/200003/full?system=ddot&pubtoken=035e52d7b3f286e58474fab73e03cce80704820aa19984144b8548de7f20d79d&refreshRate=2000", "smallimage": "https://ie.trafficland.com/v2.0/200003/half?system=ddot&pubtoken=035e52d7b3f286e58474fab73e03cce80704820aa19984144b8548de7f20d79d&refreshRate=2000", "lat": 38.905143, "lng": -77.068561, "refresh": 2000, "provider": "DDOT", "pindex": 1}, {"id": "200002", "name": "New Hampshire Ave @ Georgia Ave ", "image": "https://ie.trafficland.com/v2.0/200002/full?system=ddot&pubtoken=f1da9e41df45b2eef354b071a3cb28a553dd7b870da9ed80d7e493a4008a7920&refreshRate=2000", "smallimage": "https://ie.trafficland.com/v2.0/200002/half?system=ddot&pubtoken=f1da9e41df45b2eef354b071a3cb28a553dd7b870da9ed80d7e493a4008a7920&refreshRate=2000", "lat": 38.936701, "lng": -77.024232, "refresh": 2000, "provider": "DDOT", "pindex": 1}, {"id": "200001", "name": "K St @ 17th St & Conneticut Ave", "image": "https://ie.trafficland.com/v2.0/200001/full?system=ddot&pubtoken=b1b04ddd6e05ae2ef6fb433380d2d4adb3a696bf65dd9a9f6fede394ee0ca9f5&refreshRate=2000", "smallimage": "https://ie.trafficland.com/v2.0/200001/half?system=ddot&pubtoken=b1b04ddd6e05ae2ef6fb433380d2d4adb3a696bf65dd9a9f6fede394ee0ca9f5&refreshRate=2000", "lat": 38.902599, "lng": -77.039233, "refresh": 2000, "provider": "DDOT", "pindex": 1}, {"id": "200157", "name": "14th St @ I St", "image": "https://ie.trafficland.com/v2.0/200157/full?system=ddot&pubtoken=9843bc453b756ad77e21afe6498dce2b69242f86965e5936df49e1926210bfad&refreshRate=2000", "smallimage": "https://ie.trafficland.com/v2.0/200157/half?system=ddot&pubtoken=9843bc453b756ad77e21afe6498dce2b69242f86965e5936df49e1926210bfad&refreshRate=2000", "lat": 38.90123, "lng": -77.032121, "refresh": 2000, "provider": "DDOT", "pindex": 1}, {"id": "200142", "name": "S Capitol St @ Atlantic St & Mississippi Ave", "image": "https://ie.trafficland.com/v2.0/200142/full?system=ddot&pubtoken=d76d93399eaa371236095ffda0076cc839e529f057201915cbe87d587cbe588f&refreshRate=2000", "smallimage": "https://ie.trafficland.com/v2.0/200142/half?system=ddot&pubtoken=d76d93399eaa371236095ffda0076cc839e529f057201915cbe87d587cbe588f&refreshRate=2000", "lat": 38.831494, "lng": -77.007588, "refresh": 2000, "provider": "DDOT", "pindex": 1}, {"id": "200141", "name": "Connecticut Ave @ Cathedral Ave", "image": "https://ie.trafficland.com/v2.0/200141/full?system=ddot&pubtoken=f5c23371ea47507c324c35f6d8a8d7d89be547f6777569928deff57c75fc98e8&refreshRate=2000", "smallimage": "https://ie.trafficland.com/v2.0/200141/half?system=ddot&pubtoken=f5c23371ea47507c324c35f6d8a8d7d89be547f6777569928deff57c75fc98e8&refreshRate=2000", "lat": 38.928246, "lng": -77.054386, "refresh": 2000, "provider": "DDOT", "pindex": 1}, {"id": "401589", "name": "I-95/495 @ Darcy Rd", "image": "https://ie.trafficland.com/v2.0/401589/full?system=ddot&pubtoken=3791faa334dd295c283338ba18b69f4cc65020fbc2ae4e7f90b236ef7b2f1548&refreshRate=2000", "smallimage": "https://ie.trafficland.com/v2.0/401589/half?system=ddot&pubtoken=3791faa334dd295c283338ba18b69f4cc65020fbc2ae4e7f90b236ef7b2f1548&refreshRate=2000", "lat": 38.856334, "lng": -76.853131, "refresh": 2000, "provider": "SHA", "pindex": 2}, {"id": "401669", "name": "ICC MD-200 w/o I-95 ", "image": "https://ie.trafficland.com/v2.0/401669/full?system=ddot&pubtoken=43fb6441dd47a45cc8d4fa57873adbc8c4ac54afd8047b6674788690f24fb3ac&refreshRate=2000", "smallimage": "https://ie.trafficland.com/v2.0/401669/half?system=ddot&pubtoken=43fb6441dd47a45cc8d4fa57873adbc8c4ac54afd8047b6674788690f24fb3ac&refreshRate=2000", "lat": 39.074858, "lng": -76.913951, "refresh": 2000, "provider": "SHA", "pindex": 2}, {"id": "401720", "name": "ICC MD-200 WB @ Deckover Approach", "image": "https://ie.trafficland.com/v2.0/401720/full?system=ddot&pubtoken=a7c1e2580a785839afb99ca87f6a1a82ca3b77669a08de324818b1ff214c09ec&refreshRate=2000", "smallimage": "https://ie.trafficland.com/v2.0/401720/half?system=ddot&pubtoken=a7c1e2580a785839afb99ca87f6a1a82ca3b77669a08de324818b1ff214c09ec&refreshRate=2000", "lat": 39.137215, "lng": -77.131728, "refresh": 2000, "provider": "SHA", "pindex": 2}, {"id": "401679", "name": "ICC MD-200 w/o MD-650 ", "image": "https://ie.trafficland.com/v2.0/401679/full?system=ddot&pubtoken=4392a78cecf378e66ec45c3c702b5cddf59e551bbe0658b2643afad4c9a150cc&refreshRate=2000", "smallimage": "https://ie.trafficland.com/v2.0/401679/half?system=ddot&pubtoken=4392a78cecf378e66ec45c3c702b5cddf59e551bbe0658b2643afad4c9a150cc&refreshRate=2000", "lat": 39.088331, "lng": -77.00589, "refresh": 2000, "provider": "SHA", "pindex": 2}, {"id": "401681", "name": "ICC MD-200 e/o MD-650 ", "image": "https://ie.trafficland.com/v2.0/401681/full?system=ddot&pubtoken=0e132e14351e6dac512be59ae4fc098d53b4b18b593926539e0d85c304691b82&refreshRate=2000", "smallimage": "https://ie.trafficland.com/v2.0/401681/half?system=ddot&pubtoken=0e132e14351e6dac512be59ae4fc098d53b4b18b593926539e0d85c304691b82&refreshRate=2000", "lat": 39.089868, "lng": -76.987663, "refresh": 2000, "provider": "SHA", "pindex": 2}, {"id": "401695", "name": "US-29 @ MD-198", "image": "https://ie.trafficland.com/v2.0/401695/full?system=ddot&pubtoken=cf7627604b66d88cf7b1fa8c741cfd54cf9deac7effc136b5b5bde632303c7b4&refreshRate=2000", "smallimage": "https://ie.trafficland.com/v2.0/401695/half?system=ddot&pubtoken=cf7627604b66d88cf7b1fa8c741cfd54cf9deac7effc136b5b5bde632303c7b4&refreshRate=2000", "lat": 39.112085, "lng": -76.929075, "refresh": 2000, "provider": "SHA", "pindex": 2}, {"id": "401702", "name": "ICC MD-200 w/o MD-97", "image": "https://ie.trafficland.com/v2.0/401702/full?system=ddot&pubtoken=60927c040775098cee298f02039835724719a8481425e4b9a20a9eb3a0584aa0&refreshRate=2000", "smallimage": "https://ie.trafficland.com/v2.0/401702/half?system=ddot&pubtoken=60927c040775098cee298f02039835724719a8481425e4b9a20a9eb3a0584aa0&refreshRate=2000", "lat": 39.119397, "lng": -77.079009, "refresh": 2000, "provider": "SHA", "pindex": 2}, {"id": "401722", "name": "ICC MD-200 WB @ Deckover Interior", "image": "https://ie.trafficland.com/v2.0/401722/full?system=ddot&pubtoken=1d09b41ed471a9768db8289aeb2ab3c46f79e06124a6d2a5f776c926d414483b&refreshRate=2000", "smallimage": "https://ie.trafficland.com/v2.0/401722/half?system=ddot&pubtoken=1d09b41ed471a9768db8289aeb2ab3c46f79e06124a6d2a5f776c926d414483b&refreshRate=2000", "lat": 39.137697, "lng": -77.133046, "refresh": 2000, "provider": "SHA", "pindex": 2}, {"id": "401712", "name": "ICC MD-200 @ Crabbs Branch Way", "image": "https://ie.trafficland.com/v2.0/401712/full?system=ddot&pubtoken=956bb954cdd656a971c31054d4f49e9cf6e54400729771654e7265794c959040&refreshRate=2000", "smallimage": "https://ie.trafficland.com/v2.0/401712/half?system=ddot&pubtoken=956bb954cdd656a971c31054d4f49e9cf6e54400729771654e7265794c959040&refreshRate=2000", "lat": 39.130309, "lng": -77.171758, "refresh": 2000, "provider": "SHA", "pindex": 2}, {"id": "401700", "name": "ICC MD-200 e/o MD-97 ", "image": "https://ie.trafficland.com/v2.0/401700/full?system=ddot&pubtoken=ded319d0f2959a199fe8ab6e4d0187b5f5edf4ef3a892f53e22df8fc3a509974&refreshRate=2000", "smallimage": "https://ie.trafficland.com/v2.0/401700/half?system=ddot&pubtoken=ded319d0f2959a199fe8ab6e4d0187b5f5edf4ef3a892f53e22df8fc3a509974&refreshRate=2000", "lat": 39.1168, "lng": -77.065733, "refresh": 2000, "provider": "SHA", "pindex": 2}, {"id": "401684", "name": "ICC MD-200 @ Bonifant Rd", "image": "https://ie.trafficland.com/v2.0/401684/full?system=ddot&pubtoken=1d2c74ae17138520ae2579b683803faa246798883cc03ffc633fb8d1204f000e&refreshRate=2000", "smallimage": "https://ie.trafficland.com/v2.0/401684/half?system=ddot&pubtoken=1d2c74ae17138520ae2579b683803faa246798883cc03ffc633fb8d1204f000e&refreshRate=2000", "lat": 39.096049, "lng": -77.031797, "refresh": 2000, "provider": "SHA", "pindex": 2}, {"id": "401687", "name": "ICC MD-200 e/o MD-182 ", "image": "https://ie.trafficland.com/v2.0/401687/full?system=ddot&pubtoken=ec46ae4f767d611960db3976921a0f28ccbbc12ca84e6c64e1c5573ea7d95784&refreshRate=2000", "smallimage": "https://ie.trafficland.com/v2.0/401687/half?system=ddot&pubtoken=ec46ae4f767d611960db3976921a0f28ccbbc12ca84e6c64e1c5573ea7d95784&refreshRate=2000", "lat": 39.096054, "lng": -77.031796, "refresh": 2000, "provider": "SHA", "pindex": 2}, {"id": "401689", "name": "I-95 @ MD-198", "image": "https://ie.trafficland.com/v2.0/401689/full?system=ddot&pubtoken=d50dff57e7979a678a6b4d07755b514d9f4b9d5b16b2ff326923245e7217cd70&refreshRate=2000", "smallimage": "https://ie.trafficland.com/v2.0/401689/half?system=ddot&pubtoken=d50dff57e7979a678a6b4d07755b514d9f4b9d5b16b2ff326923245e7217cd70&refreshRate=2000", "lat": 39.100045, "lng": -76.889611, "refresh": 2000, "provider": "SHA", "pindex": 2}, {"id": "401691", "name": "ICC MD-200 w/o MD-182 ", "image": "https://ie.trafficland.com/v2.0/401691/full?system=ddot&pubtoken=4363c61dae995b88081cde2d7735e3fbce43460cc2f7c9f21be341f7c61e7614&refreshRate=2000", "smallimage": "https://ie.trafficland.com/v2.0/401691/half?system=ddot&pubtoken=4363c61dae995b88081cde2d7735e3fbce43460cc2f7c9f21be341f7c61e7614&refreshRate=2000", "lat": 39.099853, "lng": -77.043575, "refresh": 2000, "provider": "SHA", "pindex": 2}, {"id": "401693", "name": "ICC MD-200 @ Longmead Crossing Dr", "image": "https://ie.trafficland.com/v2.0/401693/full?system=ddot&pubtoken=b74f3ff82e778f9f151c7e3698d22520550c2431339010a68883b13a0c1197e3&refreshRate=2000", "smallimage": "https://ie.trafficland.com/v2.0/401693/half?system=ddot&pubtoken=b74f3ff82e778f9f151c7e3698d22520550c2431339010a68883b13a0c1197e3&refreshRate=2000", "lat": 39.107437, "lng": -77.053771, "refresh": 2000, "provider": "SHA", "pindex": 2}, {"id": "401703", "name": "ICC MD-200 e/o Muncaster Mill Rd", "image": "https://ie.trafficland.com/v2.0/401703/full?system=ddot&pubtoken=d3021619474a2a14ca5e8059e959d317a9007c1a911db0c98ba0cbc2f3388418&refreshRate=2000", "smallimage": "https://ie.trafficland.com/v2.0/401703/half?system=ddot&pubtoken=d3021619474a2a14ca5e8059e959d317a9007c1a911db0c98ba0cbc2f3388418&refreshRate=2000", "lat": 39.126442, "lng": -77.103557, "refresh": 2000, "provider": "SHA", "pindex": 2}, {"id": "401706", "name": "ICC MD-200 w/o Muncaster Mill Rd ", "image": "https://ie.trafficland.com/v2.0/401706/full?system=ddot&pubtoken=3327549ee3aa16243d63d2642a8e190988669d5def4594e19047bdea09a521e7&refreshRate=2000", "smallimage": "https://ie.trafficland.com/v2.0/401706/half?system=ddot&pubtoken=3327549ee3aa16243d63d2642a8e190988669d5def4594e19047bdea09a521e7&refreshRate=2000", "lat": 39.127755, "lng": -77.12101, "refresh": 2000, "provider": "SHA", "pindex": 2}, {"id": "401714", "name": "ICC MD-200 w/o Needwood Rd", "image": "https://ie.trafficland.com/v2.0/401714/full?system=ddot&pubtoken=2a308e1a6894e7955be67e66d326dea2d8a0bcea18739f0164ad16192f36c27f&refreshRate=2000", "smallimage": "https://ie.trafficland.com/v2.0/401714/half?system=ddot&pubtoken=2a308e1a6894e7955be67e66d326dea2d8a0bcea18739f0164ad16192f36c27f&refreshRate=2000", "lat": 39.133906, "lng": -77.126392, "refresh": 2000, "provider": "SHA", "pindex": 2}, {"id": "401716", "name": "ICC MD-200 @ Redland Rd ", "image": "https://ie.trafficland.com/v2.0/401716/full?system=ddot&pubtoken=f9e27f6860fcf081b1b1bbb5088210490ba475d6ccac4411006b53d35c8c590c&refreshRate=2000", "smallimage": "https://ie.trafficland.com/v2.0/401716/half?system=ddot&pubtoken=f9e27f6860fcf081b1b1bbb5088210490ba475d6ccac4411006b53d35c8c590c&refreshRate=2000", "lat": 39.134834, "lng": -77.145519, "refresh": 2000, "provider": "SHA", "pindex": 2}, {"id": "401717", "name": "ICC MD-200 @ N Metro Access Rd", "image": "https://ie.trafficland.com/v2.0/401717/full?system=ddot&pubtoken=c96c835443926ac02b591560848d21e734bda2ea4cf437a5eb7a751ffb04fa82&refreshRate=2000", "smallimage": "https://ie.trafficland.com/v2.0/401717/half?system=ddot&pubtoken=c96c835443926ac02b591560848d21e734bda2ea4cf437a5eb7a751ffb04fa82&refreshRate=2000", "lat": 39.137169, "lng": -77.162745, "refresh": 2000, "provider": "SHA", "pindex": 2}, {"id": "401725", "name": "ICC MD-200 EB @ Deckover Interior", "image": "https://ie.trafficland.com/v2.0/401725/full?system=ddot&pubtoken=249bc1854241f373717446d40ea6e45aabf9cbec46443219b37721f4e2f94eeb&refreshRate=2000", "smallimage": "https://ie.trafficland.com/v2.0/401725/half?system=ddot&pubtoken=249bc1854241f373717446d40ea6e45aabf9cbec46443219b37721f4e2f94eeb&refreshRate=2000", "lat": 39.137996, "lng": -77.13488, "refresh": 2000, "provider": "SHA", "pindex": 2}, {"id": "401727", "name": "ICC MD-200 EB @ Deckover Approach ", "image": "https://ie.trafficland.com/v2.0/401727/full?system=ddot&pubtoken=8bd641cc0cebc67592f974eb67f8c30ef3957c92ad5675e871a7dc5b12b33e5f&refreshRate=2000", "smallimage": "https://ie.trafficland.com/v2.0/401727/half?system=ddot&pubtoken=8bd641cc0cebc67592f974eb67f8c30ef3957c92ad5675e871a7dc5b12b33e5f&refreshRate=2000", "lat": 39.138539, "lng": -77.136734, "refresh": 2000, "provider": "SHA", "pindex": 2}, {"id": "401730", "name": "ICC MD-200 @ Overhill Rd", "image": "https://ie.trafficland.com/v2.0/401730/full?system=ddot&pubtoken=94d5e8004915964df23191c4f2de997bb593a0970a09890de0fc00d05e880672&refreshRate=2000", "smallimage": "https://ie.trafficland.com/v2.0/401730/half?system=ddot&pubtoken=94d5e8004915964df23191c4f2de997bb593a0970a09890de0fc00d05e880672&refreshRate=2000", "lat": 39.139133, "lng": -77.139485, "refresh": 2000, "provider": "SHA", "pindex": 2}, {"id": "15304", "name": "Weather Station - I-68 @ Sideling Hill", "image": "https://ie.trafficland.com/v2.0/15304/full?system=ddot&pubtoken=ccfb028eb95e0375393e63aa325d65590c135e8d10a8dc271f0cd1e9205de300&refreshRate=2000", "smallimage": "https://ie.trafficland.com/v2.0/15304/half?system=ddot&pubtoken=ccfb028eb95e0375393e63aa325d65590c135e8d10a8dc271f0cd1e9205de300&refreshRate=2000", "lat": 39.714966, "lng": -78.280254, "refresh": 2000, "provider": "SHA", "pindex": 2}, {"id": "15230", "name": "Pennsy Dr @ Ardwick Ardmore Rd", "image": "https://ie.trafficland.com/v2.0/15230/full?system=ddot&pubtoken=c896bc94f012109ac97d6d9d90aa392811781a9263ffa0ef903767eabfbd3e55&refreshRate=2000", "smallimage": "https://ie.trafficland.com/v2.0/15230/half?system=ddot&pubtoken=c896bc94f012109ac97d6d9d90aa392811781a9263ffa0ef903767eabfbd3e55&refreshRate=2000", "lat": 38.94377, "lng": -76.871173, "refresh": 2000, "provider": "SHA", "pindex": 2}, {"id": "15245", "name": "Bradley Blvd (MD-191) @ Connecticut Ave (MD-185)", "image": "https://ie.trafficland.com/v2.0/15245/full?system=ddot&pubtoken=450793e3c9e46cc0306d07b9e99162ff88608d6f2a8fc0c47f0b3fc129f546a3&refreshRate=2000", "smallimage": "https://ie.trafficland.com/v2.0/15245/half?system=ddot&pubtoken=450793e3c9e46cc0306d07b9e99162ff88608d6f2a8fc0c47f0b3fc129f546a3&refreshRate=2000", "lat": 38.976642, "lng": -77.077008, "refresh": 2000, "provider": "SHA", "pindex": 2}, {"id": "15246", "name": "Columbia Pk (US-29) @ Lockwood Dr", "image": "https://ie.trafficland.com/v2.0/15246/full?system=ddot&pubtoken=ed855a3fc5670999d21f30c14c68b7a2d713ce482f7e809319885525ecba3f8a&refreshRate=2000", "smallimage": "https://ie.trafficland.com/v2.0/15246/half?system=ddot&pubtoken=ed855a3fc5670999d21f30c14c68b7a2d713ce482f7e809319885525ecba3f8a&refreshRate=2000", "lat": 39.033201, "lng": -77.002693, "refresh": 2000, "provider": "SHA", "pindex": 2}, {"id": "15247", "name": "I-370/Frederick Rd (MD-355) @ Shady Grove Rd", "image": "https://ie.trafficland.com/v2.0/15247/full?system=ddot&pubtoken=0d5e7fad5237dd6b80289aa4e3c07d3449c30f7d36873d6d3506b6222b54f74b&refreshRate=2000", "smallimage": "https://ie.trafficland.com/v2.0/15247/half?system=ddot&pubtoken=0d5e7fad5237dd6b80289aa4e3c07d3449c30f7d36873d6d3506b6222b54f74b&refreshRate=2000", "lat": 39.122559, "lng": -77.178528, "refresh": 2000, "provider": "SHA", "pindex": 2}, {"id": "15248", "name": "I-295 n/o I-495", "image": "https://ie.trafficland.com/v2.0/15248/full?system=ddot&pubtoken=1b437f87ac630cd887d1bbf12f6b1a46e82aeb73228a2ce77192af7c822c695c&refreshRate=2000", "smallimage": "https://ie.trafficland.com/v2.0/15248/half?system=ddot&pubtoken=1b437f87ac630cd887d1bbf12f6b1a46e82aeb73228a2ce77192af7c822c695c&refreshRate=2000", "lat": 38.802451, "lng": -77.021992, "refresh": 2000, "provider": "SHA", "pindex": 2}, {"id": "15249", "name": "I-495 @ US-29", "image": "https://ie.trafficland.com/v2.0/15249/full?system=ddot&pubtoken=890c5274b9aaacfc2a710e4267d7e2ef76262daf91817aa3097a8c47137992c1&refreshRate=2000", "smallimage": "https://ie.trafficland.com/v2.0/15249/half?system=ddot&pubtoken=890c5274b9aaacfc2a710e4267d7e2ef76262daf91817aa3097a8c47137992c1&refreshRate=2000", "lat": 39.015672, "lng": -77.01709, "refresh": 2000, "provider": "SHA", "pindex": 2}, {"id": "15250", "name": "I-495 s/o River Rd", "image": "https://ie.trafficland.com/v2.0/15250/full?system=ddot&pubtoken=a8a4eb6b88a0005de4bfee009ecfd71e3fd962dc4101d7dbfc13f3f394ea2552&refreshRate=2000", "smallimage": "https://ie.trafficland.com/v2.0/15250/half?system=ddot&pubtoken=a8a4eb6b88a0005de4bfee009ecfd71e3fd962dc4101d7dbfc13f3f394ea2552&refreshRate=2000", "lat": 38.981686, "lng": -77.172639, "refresh": 2000, "provider": "SHA", "pindex": 2}, {"id": "15264", "name": "I-95 @ MD-212", "image": "https://ie.trafficland.com/v2.0/15264/full?system=ddot&pubtoken=e1bfd6020a67a9c1daf21270f96ae15d27060400438ba12addf4e11796c18e68&refreshRate=2000", "smallimage": "https://ie.trafficland.com/v2.0/15264/half?system=ddot&pubtoken=e1bfd6020a67a9c1daf21270f96ae15d27060400438ba12addf4e11796c18e68&refreshRate=2000", "lat": 39.051029, "lng": -76.930193, "refresh": 2000, "provider": "SHA", "pindex": 2}, {"id": "15273", "name": "I-95/495 @ Arena Dr", "image": "https://ie.trafficland.com/v2.0/15273/full?system=ddot&pubtoken=c1b39f68befcab398fb4bb8f8d28d642ec113bc5e414db853d47346ec89dfa89&refreshRate=2000", "smallimage": "https://ie.trafficland.com/v2.0/15273/half?system=ddot&pubtoken=c1b39f68befcab398fb4bb8f8d28d642ec113bc5e414db853d47346ec89dfa89&refreshRate=2000", "lat": 38.906977, "lng": -76.850364, "refresh": 2000, "provider": "SHA", "pindex": 2}, {"id": "15276", "name": "I-95/495 @ MD-210", "image": "https://ie.trafficland.com/v2.0/15276/full?system=ddot&pubtoken=9873ab29a12b3786a0f11fb9e93af20435d4cb837d135964fdaa2827d918968b&refreshRate=2000", "smallimage": "https://ie.trafficland.com/v2.0/15276/half?system=ddot&pubtoken=9873ab29a12b3786a0f11fb9e93af20435d4cb837d135964fdaa2827d918968b&refreshRate=2000", "lat": 38.801454, "lng": -77.001204, "refresh": 2000, "provider": "SHA", "pindex": 2}, {"id": "15277", "name": "I-95/495 @ MD-214", "image": "https://ie.trafficland.com/v2.0/15277/full?system=ddot&pubtoken=e778dd116ff76692e96afbcf138b9d4cb71bc0a39ce0e503787877adebf04447&refreshRate=2000", "smallimage": "https://ie.trafficland.com/v2.0/15277/half?system=ddot&pubtoken=e778dd116ff76692e96afbcf138b9d4cb71bc0a39ce0e503787877adebf04447&refreshRate=2000", "lat": 38.892426, "lng": -76.847591, "refresh": 2000, "provider": "SHA", "pindex": 2}, {"id": "15278", "name": "I-95/495 n/o MD-210", "image": "https://ie.trafficland.com/v2.0/15278/full?system=ddot&pubtoken=426dfddb5b6fbe7972a70c78cc911594401c5e6767e9ca525309d11e322ec510&refreshRate=2000", "smallimage": "https://ie.trafficland.com/v2.0/15278/half?system=ddot&pubtoken=426dfddb5b6fbe7972a70c78cc911594401c5e6767e9ca525309d11e322ec510&refreshRate=2000", "lat": 38.805015, "lng": -76.996578, "refresh": 2000, "provider": "SHA", "pindex": 2}, {"id": "15279", "name": "I-95/495 w/o US-1", "image": "https://ie.trafficland.com/v2.0/15279/full?system=ddot&pubtoken=7a12dee16df75ad4e375fcd36049103fa2fd9e7a9e671773e9a340e8230a963d&refreshRate=2000", "smallimage": "https://ie.trafficland.com/v2.0/15279/half?system=ddot&pubtoken=7a12dee16df75ad4e375fcd36049103fa2fd9e7a9e671773e9a340e8230a963d&refreshRate=2000", "lat": 39.021988, "lng": -76.939726, "refresh": 2000, "provider": "SHA", "pindex": 2}, {"id": "15280", "name": "I-95/495 Woodrow Wilson Brdg (VA Side)", "image": "https://ie.trafficland.com/v2.0/15280/full?system=ddot&pubtoken=24e6c880903adef6a0bb785d0e11b4fc2c763b15735148d666bd3dc8cdf2d879&refreshRate=2000", "smallimage": "https://ie.trafficland.com/v2.0/15280/half?system=ddot&pubtoken=24e6c880903adef6a0bb785d0e11b4fc2c763b15735148d666bd3dc8cdf2d879&refreshRate=2000", "lat": 38.792363, "lng": -77.040736, "refresh": 2000, "provider": "SHA", "pindex": 2}, {"id": "15287", "name": "ICC MD-200 EB @ Konterra Dr (MP-19.6)", "image": "https://ie.trafficland.com/v2.0/15287/full?system=ddot&pubtoken=aec804b58da1bc57233515ccae0455a8b2ee5a0e1522bf615360cc5b5080bd6b&refreshRate=2000", "smallimage": "https://ie.trafficland.com/v2.0/15287/half?system=ddot&pubtoken=aec804b58da1bc57233515ccae0455a8b2ee5a0e1522bf615360cc5b5080bd6b&refreshRate=2000", "lat": 39.066974, "lng": -76.895551, "refresh": 2000, "provider": "SHA", "pindex": 2}, {"id": "15297", "name": "US-50 @ Church Rd", "image": "https://ie.trafficland.com/v2.0/15297/full?system=ddot&pubtoken=34c003365a5e7e457ae25d70e7292758e194d14dface991defa289d4ef27aaed&refreshRate=2000", "smallimage": "https://ie.trafficland.com/v2.0/15297/half?system=ddot&pubtoken=34c003365a5e7e457ae25d70e7292758e194d14dface991defa289d4ef27aaed&refreshRate=2000", "lat": 38.945054, "lng": -76.770253, "refresh": 2000, "provider": "SHA", "pindex": 2}, {"id": "15302", "name": "Weather Station - I-495 @ American Legion Brdg", "image": "https://ie.trafficland.com/v2.0/15302/full?system=ddot&pubtoken=80fca160dd30ab86545c863e3f2851a21df7d4c2b7e42f1eac6038ed8f3a5126&refreshRate=2000", "smallimage": "https://ie.trafficland.com/v2.0/15302/half?system=ddot&pubtoken=80fca160dd30ab86545c863e3f2851a21df7d4c2b7e42f1eac6038ed8f3a5126&refreshRate=2000", "lat": 38.973374, "lng": -77.179123, "refresh": 2000, "provider": "SHA", "pindex": 2}, {"id": "15301", "name": "Weather Station - I-270 @ MD-109", "image": "https://ie.trafficland.com/v2.0/15301/full?system=ddot&pubtoken=a5a7cbfef0065c85bd5f5f9d3e0aa5e7b711665b8cd8f3005e1cbf56b867bdce&refreshRate=2000", "smallimage": "https://ie.trafficland.com/v2.0/15301/half?system=ddot&pubtoken=a5a7cbfef0065c85bd5f5f9d3e0aa5e7b711665b8cd8f3005e1cbf56b867bdce&refreshRate=2000", "lat": 39.277411, "lng": -77.323641, "refresh": 2000, "provider": "SHA", "pindex": 2}, {"id": "15308", "name": "Weather Station - I-70 @ I-81", "image": "https://ie.trafficland.com/v2.0/15308/full?system=ddot&pubtoken=4d6d12e46e2b757fc0be5b00b678382a2a6e3d4e39cb4af135ea3407b06d0869&refreshRate=2000", "smallimage": "https://ie.trafficland.com/v2.0/15308/half?system=ddot&pubtoken=4d6d12e46e2b757fc0be5b00b678382a2a6e3d4e39cb4af135ea3407b06d0869&refreshRate=2000", "lat": 39.615962, "lng": -77.784433, "refresh": 2000, "provider": "SHA", "pindex": 2}, {"id": "15309", "name": "Weather Station - I-70 @ MD-27", "image": "https://ie.trafficland.com/v2.0/15309/full?system=ddot&pubtoken=4534659a177a4f5f7a04bd3079d3c806e64d507cdd884545c34db0d4143381a1&refreshRate=2000", "smallimage": "https://ie.trafficland.com/v2.0/15309/half?system=ddot&pubtoken=4534659a177a4f5f7a04bd3079d3c806e64d507cdd884545c34db0d4143381a1&refreshRate=2000", "lat": 39.359567, "lng": -77.167581, "refresh": 2000, "provider": "SHA", "pindex": 2}, {"id": "401581", "name": "MD-210 s/o I-95/495", "image": "https://ie.trafficland.com/v2.0/401581/full?system=ddot&pubtoken=37617447eb5b92f62cfcc5266941034bea2c9f354e538314ca5d835582661ea4&refreshRate=2000", "smallimage": "https://ie.trafficland.com/v2.0/401581/half?system=ddot&pubtoken=37617447eb5b92f62cfcc5266941034bea2c9f354e538314ca5d835582661ea4&refreshRate=2000", "lat": 38.796465, "lng": -76.998369, "refresh": 2000, "provider": "SHA", "pindex": 2}, {"id": "401657", "name": "I-95 @ Cherry Hill Rd", "image": "https://ie.trafficland.com/v2.0/401657/full?system=ddot&pubtoken=a8d78879163b58ae644643b29b326daaef054b93c1d8b02be801e6d401d2985f&refreshRate=2000", "smallimage": "https://ie.trafficland.com/v2.0/401657/half?system=ddot&pubtoken=a8d78879163b58ae644643b29b326daaef054b93c1d8b02be801e6d401d2985f&refreshRate=2000", "lat": 39.033968, "lng": -76.94217, "refresh": 2000, "provider": "SHA", "pindex": 2}, {"id": "401608", "name": "MD-202 @ MD-704", "image": "https://ie.trafficland.com/v2.0/401608/full?system=ddot&pubtoken=ed1320753773a70b7389f766265176b08d417399795298ffe5680d56f4fdf6ea&refreshRate=2000", "smallimage": "https://ie.trafficland.com/v2.0/401608/half?system=ddot&pubtoken=ed1320753773a70b7389f766265176b08d417399795298ffe5680d56f4fdf6ea&refreshRate=2000", "lat": 38.926344, "lng": -76.874237, "refresh": 2000, "provider": "SHA", "pindex": 2}, {"id": "401610", "name": "US-50 @ MD-410 ", "image": "https://ie.trafficland.com/v2.0/401610/full?system=ddot&pubtoken=d2b61acaedaf7637b732769067a578ec834b611fe8d015a0823445eb16d6be27&refreshRate=2000", "smallimage": "https://ie.trafficland.com/v2.0/401610/half?system=ddot&pubtoken=d2b61acaedaf7637b732769067a578ec834b611fe8d015a0823445eb16d6be27&refreshRate=2000", "lat": 38.94386, "lng": -76.880604, "refresh": 2000, "provider": "SHA", "pindex": 2}, {"id": "401609", "name": "US-50 @ MD-202", "image": "https://ie.trafficland.com/v2.0/401609/full?system=ddot&pubtoken=ab4e8d70cc90c02dad7fc1b268c2413a8c1475f9ff0517b4cd293c47fa2b4179&refreshRate=2000", "smallimage": "https://ie.trafficland.com/v2.0/401609/half?system=ddot&pubtoken=ab4e8d70cc90c02dad7fc1b268c2413a8c1475f9ff0517b4cd293c47fa2b4179&refreshRate=2000", "lat": 38.930318, "lng": -76.89774, "refresh": 2000, "provider": "SHA", "pindex": 2}, {"id": "401585", "name": "I-95/I-495 @ Temple Hill Rd", "image": "https://ie.trafficland.com/v2.0/401585/full?system=ddot&pubtoken=b8b48a31a5f628e7ebfab11a5976fb7a6335cf1558e5695a2c61054810536ca6&refreshRate=2000", "smallimage": "https://ie.trafficland.com/v2.0/401585/half?system=ddot&pubtoken=b8b48a31a5f628e7ebfab11a5976fb7a6335cf1558e5695a2c61054810536ca6&refreshRate=2000", "lat": 38.81727, "lng": -76.9492, "refresh": 2000, "provider": "SHA", "pindex": 2}, {"id": "401593", "name": "Ritchie Rd @ Walker Mill Rd", "image": "https://ie.trafficland.com/v2.0/401593/full?system=ddot&pubtoken=5717a81495c3733f81a7d4ffb12c1d3b579061495f2b3f1f2eb95027c3a2775b&refreshRate=2000", "smallimage": "https://ie.trafficland.com/v2.0/401593/half?system=ddot&pubtoken=5717a81495c3733f81a7d4ffb12c1d3b579061495f2b3f1f2eb95027c3a2775b&refreshRate=2000", "lat": 38.872547, "lng": -76.856375, "refresh": 2000, "provider": "SHA", "pindex": 2}, {"id": "401613", "name": "US-50 e/o I-95/495", "image": "https://ie.trafficland.com/v2.0/401613/full?system=ddot&pubtoken=cd6ad119a3144a881e61477175959e11beda9f749659115d5f6999d706ad9b2a&refreshRate=2000", "smallimage": "https://ie.trafficland.com/v2.0/401613/half?system=ddot&pubtoken=cd6ad119a3144a881e61477175959e11beda9f749659115d5f6999d706ad9b2a&refreshRate=2000", "lat": 38.945783, "lng": -76.85419, "refresh": 2000, "provider": "SHA", "pindex": 2}, {"id": "401616", "name": "US-50 @ Lottsford Vista Rd", "image": "https://ie.trafficland.com/v2.0/401616/full?system=ddot&pubtoken=d66a29c25d055a475cc3b565d671461e67f6a3f7b37f24de97a35d7941dc3584&refreshRate=2000", "smallimage": "https://ie.trafficland.com/v2.0/401616/half?system=ddot&pubtoken=d66a29c25d055a475cc3b565d671461e67f6a3f7b37f24de97a35d7941dc3584&refreshRate=2000", "lat": 38.947243, "lng": -76.825871, "refresh": 2000, "provider": "SHA", "pindex": 2}, {"id": "401621", "name": "US-301/MD-3 @ US-50", "image": "https://ie.trafficland.com/v2.0/401621/full?system=ddot&pubtoken=d4726f8db360a2619574487253c361dcc88efbece5c87f1e772ea783e91aa76d&refreshRate=2000", "smallimage": "https://ie.trafficland.com/v2.0/401621/half?system=ddot&pubtoken=d4726f8db360a2619574487253c361dcc88efbece5c87f1e772ea783e91aa76d&refreshRate=2000", "lat": 38.9538, "lng": -76.717345, "refresh": 2000, "provider": "SHA", "pindex": 2}, {"id": "401597", "name": "MD-214 @ Ritchie Rd", "image": "https://ie.trafficland.com/v2.0/401597/full?system=ddot&pubtoken=db546d724b4b8aa3cb2bde3f8674c0f1801b70327e095b73041fcb8d675de39c&refreshRate=2000", "smallimage": "https://ie.trafficland.com/v2.0/401597/half?system=ddot&pubtoken=db546d724b4b8aa3cb2bde3f8674c0f1801b70327e095b73041fcb8d675de39c&refreshRate=2000", "lat": 38.889513, "lng": -76.862364, "refresh": 2000, "provider": "SHA", "pindex": 2}, {"id": "401588", "name": "I-95/495 @ MD-5", "image": "https://ie.trafficland.com/v2.0/401588/full?system=ddot&pubtoken=8467ff2990e941dcfa38781ebdfae8b990a8b72a0c6a5888bcbec119d5c0694f&refreshRate=2000", "smallimage": "https://ie.trafficland.com/v2.0/401588/half?system=ddot&pubtoken=8467ff2990e941dcfa38781ebdfae8b990a8b72a0c6a5888bcbec119d5c0694f&refreshRate=2000", "lat": 38.820321, "lng": -76.921361, "refresh": 2000, "provider": "SHA", "pindex": 2}, {"id": "401583", "name": "I-95/495 @ MD-414", "image": "https://ie.trafficland.com/v2.0/401583/full?system=ddot&pubtoken=4278f6e580ff66bb1bfa355d3caef18dbe99da046d24cbb5149d180ec521ed56&refreshRate=2000", "smallimage": "https://ie.trafficland.com/v2.0/401583/half?system=ddot&pubtoken=4278f6e580ff66bb1bfa355d3caef18dbe99da046d24cbb5149d180ec521ed56&refreshRate=2000", "lat": 38.808146, "lng": -76.971434, "refresh": 2000, "provider": "SHA", "pindex": 2}, {"id": "401592", "name": "I-95/495 @ Ritchie Marlboro Rd", "image": "https://ie.trafficland.com/v2.0/401592/full?system=ddot&pubtoken=f658a0d0f79de3ab28a20aae5a0e0665d26ccb3b43cb21781c0985425d694520&refreshRate=2000", "smallimage": "https://ie.trafficland.com/v2.0/401592/half?system=ddot&pubtoken=f658a0d0f79de3ab28a20aae5a0e0665d26ccb3b43cb21781c0985425d694520&refreshRate=2000", "lat": 38.869834, "lng": -76.843706, "refresh": 2000, "provider": "SHA", "pindex": 2}, {"id": "401605", "name": "Sheriff Rd @ William Paca Elem School", "image": "https://ie.trafficland.com/v2.0/401605/full?system=ddot&pubtoken=ef52ca35c358831b8d612149e79677e9c38806e0a5066b93a1928fc9049e982d&refreshRate=2000", "smallimage": "https://ie.trafficland.com/v2.0/401605/half?system=ddot&pubtoken=ef52ca35c358831b8d612149e79677e9c38806e0a5066b93a1928fc9049e982d&refreshRate=2000", "lat": 38.91261, "lng": -76.872673, "refresh": 2000, "provider": "SHA", "pindex": 2}, {"id": "401606", "name": "I-95/495 @ MD-202", "image": "https://ie.trafficland.com/v2.0/401606/full?system=ddot&pubtoken=2436f987652808cdc4ccc1501f252599c7571fe8ec5ad64bdff8c7925f1074d5&refreshRate=2000", "smallimage": "https://ie.trafficland.com/v2.0/401606/half?system=ddot&pubtoken=2436f987652808cdc4ccc1501f252599c7571fe8ec5ad64bdff8c7925f1074d5&refreshRate=2000", "lat": 38.917143, "lng": -76.851656, "refresh": 2000, "provider": "SHA", "pindex": 2}, {"id": "401607", "name": "MD-202 @ Brightseat Rd", "image": "https://ie.trafficland.com/v2.0/401607/full?system=ddot&pubtoken=704c9ed914e62848aa31be92c84a7cb56517612debeae2103835a4ad64c414a4&refreshRate=2000", "smallimage": "https://ie.trafficland.com/v2.0/401607/half?system=ddot&pubtoken=704c9ed914e62848aa31be92c84a7cb56517612debeae2103835a4ad64c414a4&refreshRate=2000", "lat": 38.917751, "lng": -76.859883, "refresh": 2000, "provider": "SHA", "pindex": 2}, {"id": "401619", "name": "US-50 e/o US-301/MD-3", "image": "https://ie.trafficland.com/v2.0/401619/full?system=ddot&pubtoken=0f4bbc4565f0f97fbad1022a9a202ef148ca084761f619ffe2672dacd79efb0f&refreshRate=2000", "smallimage": "https://ie.trafficland.com/v2.0/401619/half?system=ddot&pubtoken=0f4bbc4565f0f97fbad1022a9a202ef148ca084761f619ffe2672dacd79efb0f&refreshRate=2000", "lat": 38.955279, "lng": -76.714536, "refresh": 2000, "provider": "SHA", "pindex": 2}, {"id": "401627", "name": "I-95/495 @ Good Luck Rd", "image": "https://ie.trafficland.com/v2.0/401627/full?system=ddot&pubtoken=06c3f6d40fe79ebb4d849dfa188dc3b715372e85435fe7392a5be9d7fece7875&refreshRate=2000", "smallimage": "https://ie.trafficland.com/v2.0/401627/half?system=ddot&pubtoken=06c3f6d40fe79ebb4d849dfa188dc3b715372e85435fe7392a5be9d7fece7875&refreshRate=2000", "lat": 38.978532, "lng": -76.873582, "refresh": 2000, "provider": "SHA", "pindex": 2}, {"id": "401641", "name": "I-95/495 n/o MD-201", "image": "https://ie.trafficland.com/v2.0/401641/full?system=ddot&pubtoken=2a876236a9300604230252dab30b7af0410934fa3c7b4d5d0ca396a4e4ef9717&refreshRate=2000", "smallimage": "https://ie.trafficland.com/v2.0/401641/half?system=ddot&pubtoken=2a876236a9300604230252dab30b7af0410934fa3c7b4d5d0ca396a4e4ef9717&refreshRate=2000", "lat": 39.010021, "lng": -76.9016, "refresh": 2000, "provider": "SHA", "pindex": 2}, {"id": "401645", "name": "I-495 e/o I-270", "image": "https://ie.trafficland.com/v2.0/401645/full?system=ddot&pubtoken=d0bbd518f2f1b51ab57a691b0834649c1ce9424182cd4dca42054d083d203271&refreshRate=2000", "smallimage": "https://ie.trafficland.com/v2.0/401645/half?system=ddot&pubtoken=d0bbd518f2f1b51ab57a691b0834649c1ce9424182cd4dca42054d083d203271&refreshRate=2000", "lat": 39.01544, "lng": -77.095578, "refresh": 2000, "provider": "SHA", "pindex": 2}, {"id": "401647", "name": "I-95/495 @ US-1", "image": "https://ie.trafficland.com/v2.0/401647/full?system=ddot&pubtoken=de339fa3a380ddfd89a99c527a2a625cd2066aff4832eb4791092b7579dcea36&refreshRate=2000", "smallimage": "https://ie.trafficland.com/v2.0/401647/half?system=ddot&pubtoken=de339fa3a380ddfd89a99c527a2a625cd2066aff4832eb4791092b7579dcea36&refreshRate=2000", "lat": 39.0191, "lng": -76.923082, "refresh": 2000, "provider": "SHA", "pindex": 2}, {"id": "401649", "name": "I-270 n/o Democracy Blvd", "image": "https://ie.trafficland.com/v2.0/401649/full?system=ddot&pubtoken=acaf13d1be6dc61aa341f4846eb601e93e1dd1801fbb0ba69f2eacce26bd5782&refreshRate=2000", "smallimage": "https://ie.trafficland.com/v2.0/401649/half?system=ddot&pubtoken=acaf13d1be6dc61aa341f4846eb601e93e1dd1801fbb0ba69f2eacce26bd5782&refreshRate=2000", "lat": 39.026607, "lng": -77.141326, "refresh": 2000, "provider": "SHA", "pindex": 2}, {"id": "401655", "name": "I-270 @ Split", "image": "https://ie.trafficland.com/v2.0/401655/full?system=ddot&pubtoken=0a7da37e65bc13f8057793f856ecf0e9b0cc279fe00df932f5cf2b11100eb9b2&refreshRate=2000", "smallimage": "https://ie.trafficland.com/v2.0/401655/half?system=ddot&pubtoken=0a7da37e65bc13f8057793f856ecf0e9b0cc279fe00df932f5cf2b11100eb9b2&refreshRate=2000", "lat": 39.033577, "lng": -77.141872, "refresh": 2000, "provider": "SHA", "pindex": 2}, {"id": "401660", "name": "Rockville Pk (MD-355) @ Twinbrook Pkwy", "image": "https://ie.trafficland.com/v2.0/401660/full?system=ddot&pubtoken=a5be5b117f720f22858c79a892c91508aea07acc0a0a9cc0e37340a402f4b76e&refreshRate=2000", "smallimage": "https://ie.trafficland.com/v2.0/401660/half?system=ddot&pubtoken=a5be5b117f720f22858c79a892c91508aea07acc0a0a9cc0e37340a402f4b76e&refreshRate=2000", "lat": 39.05897, "lng": -77.121472, "refresh": 2000, "provider": "SHA", "pindex": 2}, {"id": "401579", "name": "I-95/495 @ National Harbor", "image": "https://ie.trafficland.com/v2.0/401579/full?system=ddot&pubtoken=f91b40b74cb8cab15890945b214c988e4b2fed230b0443e3aeafee1cf0e3fcab&refreshRate=2000", "smallimage": "https://ie.trafficland.com/v2.0/401579/half?system=ddot&pubtoken=f91b40b74cb8cab15890945b214c988e4b2fed230b0443e3aeafee1cf0e3fcab&refreshRate=2000", "lat": 38.793948, "lng": -77.016092, "refresh": 2000, "provider": "SHA", "pindex": 2}, {"id": "401580", "name": "I-95/495 @ I-295", "image": "https://ie.trafficland.com/v2.0/401580/full?system=ddot&pubtoken=32b4ae09328485e82b13a581bcdf70d17b96458b236a1ed025a5bc17b81de3bb&refreshRate=2000", "smallimage": "https://ie.trafficland.com/v2.0/401580/half?system=ddot&pubtoken=32b4ae09328485e82b13a581bcdf70d17b96458b236a1ed025a5bc17b81de3bb&refreshRate=2000", "lat": 38.795693, "lng": -77.015837, "refresh": 2000, "provider": "SHA", "pindex": 2}, {"id": "15274", "name": "I-95/495 @ Forestville Rd", "image": "https://ie.trafficland.com/v2.0/15274/full?system=ddot&pubtoken=7fddffc193153803197b739abce443dee82fa6c58417706e9d3b8e04041e3a50&refreshRate=2000", "smallimage": "https://ie.trafficland.com/v2.0/15274/half?system=ddot&pubtoken=7fddffc193153803197b739abce443dee82fa6c58417706e9d3b8e04041e3a50&refreshRate=2000", "lat": 38.827399, "lng": -76.878146, "refresh": 2000, "provider": "SHA", "pindex": 2}, {"id": "401671", "name": "ICC MD-200 e/o US-29", "image": "https://ie.trafficland.com/v2.0/401671/full?system=ddot&pubtoken=de1c1cb7f1eef32c91fd541e6a1c986499c2f47b6ec4f14bfad2bd4e3ed9b011&refreshRate=2000", "smallimage": "https://ie.trafficland.com/v2.0/401671/half?system=ddot&pubtoken=de1c1cb7f1eef32c91fd541e6a1c986499c2f47b6ec4f14bfad2bd4e3ed9b011&refreshRate=2000", "lat": 39.075651, "lng": -76.948345, "refresh": 2000, "provider": "SHA", "pindex": 2}, {"id": "401665", "name": "ICC MD-200 @ I-95 ", "image": "https://ie.trafficland.com/v2.0/401665/full?system=ddot&pubtoken=2df8db2eb3e720c41c27aa35d35b977efb5a7374ea17439ce5cce27f38986547&refreshRate=2000", "smallimage": "https://ie.trafficland.com/v2.0/401665/half?system=ddot&pubtoken=2df8db2eb3e720c41c27aa35d35b977efb5a7374ea17439ce5cce27f38986547&refreshRate=2000", "lat": 39.073164, "lng": -76.904679, "refresh": 2000, "provider": "SHA", "pindex": 2}, {"id": "401667", "name": "ICC MD-200 @ Briggs Chaney Rd", "image": "https://ie.trafficland.com/v2.0/401667/full?system=ddot&pubtoken=3e7afa25a5868e3ecd4b44b8d31c0fb8f28b93e36966043dba0baacc42167565&refreshRate=2000", "smallimage": "https://ie.trafficland.com/v2.0/401667/half?system=ddot&pubtoken=3e7afa25a5868e3ecd4b44b8d31c0fb8f28b93e36966043dba0baacc42167565&refreshRate=2000", "lat": 39.073777, "lng": -76.932236, "refresh": 2000, "provider": "SHA", "pindex": 2}, {"id": "401670", "name": "I-70 e/o MD-144 (Tower)", "image": "https://ie.trafficland.com/v2.0/401670/full?system=ddot&pubtoken=5c72446741ccf0d348f6aeac2392944a45ee36abe6fc076cb05bf38cb882f16c&refreshRate=2000", "smallimage": "https://ie.trafficland.com/v2.0/401670/half?system=ddot&pubtoken=5c72446741ccf0d348f6aeac2392944a45ee36abe6fc076cb05bf38cb882f16c&refreshRate=2000", "lat": 39.4067, "lng": -77.374815, "refresh": 2000, "provider": "SHA", "pindex": 2}, {"id": "401674", "name": "ICC MD-200 w/o US-29 ", "image": "https://ie.trafficland.com/v2.0/401674/full?system=ddot&pubtoken=88f376152a3f118eff652fba9a08dfe96bc1f2de39456d9bc57a1e47be53d81b&refreshRate=2000", "smallimage": "https://ie.trafficland.com/v2.0/401674/half?system=ddot&pubtoken=88f376152a3f118eff652fba9a08dfe96bc1f2de39456d9bc57a1e47be53d81b&refreshRate=2000", "lat": 39.0793, "lng": -76.955812, "refresh": 2000, "provider": "SHA", "pindex": 2}, {"id": "401676", "name": "ICC MD-200 @ Creekside", "image": "https://ie.trafficland.com/v2.0/401676/full?system=ddot&pubtoken=da7875ab1301ab1929eae0f3a49f6f191d9e748ec373725a86e1bbdc1424e5aa&refreshRate=2000", "smallimage": "https://ie.trafficland.com/v2.0/401676/half?system=ddot&pubtoken=da7875ab1301ab1929eae0f3a49f6f191d9e748ec373725a86e1bbdc1424e5aa&refreshRate=2000", "lat": 39.083133, "lng": -76.969533, "refresh": 2000, "provider": "SHA", "pindex": 2}, {"id": "401598", "name": "Arena Dr @ Lottsford Rd", "image": "https://ie.trafficland.com/v2.0/401598/full?system=ddot&pubtoken=f07d82d0d9a3815f0de9c935526364f260d188a82db59c3c8f2b20b228d50a6a&refreshRate=2000", "smallimage": "https://ie.trafficland.com/v2.0/401598/half?system=ddot&pubtoken=f07d82d0d9a3815f0de9c935526364f260d188a82db59c3c8f2b20b228d50a6a&refreshRate=2000", "lat": 38.903876, "lng": -76.842629, "refresh": 2000, "provider": "SHA", "pindex": 2}, {"id": "401563", "name": "US-301 @ HWN Brdg (VA Side)", "image": "https://ie.trafficland.com/v2.0/401563/full?system=ddot&pubtoken=116052f2185c9455fe03959cf7c2d3a251fcb0cb0eca779f3e71118eb86f2369&refreshRate=2000", "smallimage": "https://ie.trafficland.com/v2.0/401563/half?system=ddot&pubtoken=116052f2185c9455fe03959cf7c2d3a251fcb0cb0eca779f3e71118eb86f2369&refreshRate=2000", "lat": 38.359214, "lng": -77.015372, "refresh": 2000, "provider": "SHA", "pindex": 2}, {"id": "401573", "name": "US-301 @ MD-5", "image": "https://ie.trafficland.com/v2.0/401573/full?system=ddot&pubtoken=7c3db153ef26a6b4c6a5ff0a5a70277eca2c26e9e769e385add5696bc52a307c&refreshRate=2000", "smallimage": "https://ie.trafficland.com/v2.0/401573/half?system=ddot&pubtoken=7c3db153ef26a6b4c6a5ff0a5a70277eca2c26e9e769e385add5696bc52a307c&refreshRate=2000", "lat": 38.695161, "lng": -76.871917, "refresh": 2000, "provider": "SHA", "pindex": 2}, {"id": "401564", "name": "US-301 @ HWN Brdg Pier #7", "image": "https://ie.trafficland.com/v2.0/401564/full?system=ddot&pubtoken=7906af6f12607d5ab158fc0f08b2dc21e4f176d0ce8e228fdf2a101cfae18b24&refreshRate=2000", "smallimage": "https://ie.trafficland.com/v2.0/401564/half?system=ddot&pubtoken=7906af6f12607d5ab158fc0f08b2dc21e4f176d0ce8e228fdf2a101cfae18b24&refreshRate=2000", "lat": 38.362261, "lng": -76.991698, "refresh": 2000, "provider": "SHA", "pindex": 2}, {"id": "401565", "name": "US-301 @ HWN Brdg Pier #20", "image": "https://ie.trafficland.com/v2.0/401565/full?system=ddot&pubtoken=c64a30122c7698acc8c104af09ce66a36f055d2ed92605ceba79716c841fe44f&refreshRate=2000", "smallimage": "https://ie.trafficland.com/v2.0/401565/half?system=ddot&pubtoken=c64a30122c7698acc8c104af09ce66a36f055d2ed92605ceba79716c841fe44f&refreshRate=2000", "lat": 38.362575, "lng": -76.989393, "refresh": 2000, "provider": "SHA", "pindex": 2}, {"id": "401566", "name": "US-301 @ Toll Plaza ", "image": "https://ie.trafficland.com/v2.0/401566/full?system=ddot&pubtoken=ee0d498fc0394ee5d9e1ca371b5617b136429a090fb7f8463b8ef26ca7f21f85&refreshRate=2000", "smallimage": "https://ie.trafficland.com/v2.0/401566/half?system=ddot&pubtoken=ee0d498fc0394ee5d9e1ca371b5617b136429a090fb7f8463b8ef26ca7f21f85&refreshRate=2000", "lat": 38.364365, "lng": -76.975913, "refresh": 2000, "provider": "SHA", "pindex": 2}, {"id": "401578", "name": "I-95/495 on Woodrow Wilson Brdg (MD)", "image": "https://ie.trafficland.com/v2.0/401578/full?system=ddot&pubtoken=b58ed289e1b4f204acb4f09b2e6ffbb981f825f52ab20f1df3c702f1c12c70e5&refreshRate=2000", "smallimage": "https://ie.trafficland.com/v2.0/401578/half?system=ddot&pubtoken=b58ed289e1b4f204acb4f09b2e6ffbb981f825f52ab20f1df3c702f1c12c70e5&refreshRate=2000", "lat": 38.792734, "lng": -77.035198, "refresh": 2000, "provider": "SHA", "pindex": 2}, {"id": "401576", "name": "National Harbor Blvd @ American Way", "image": "https://ie.trafficland.com/v2.0/401576/full?system=ddot&pubtoken=7e3bd4b01741d7a0f415b9bdce162d869f603a6139f5011365d1569ccf4b540d&refreshRate=2000", "smallimage": "https://ie.trafficland.com/v2.0/401576/half?system=ddot&pubtoken=7e3bd4b01741d7a0f415b9bdce162d869f603a6139f5011365d1569ccf4b540d&refreshRate=2000", "lat": 38.782322, "lng": -77.010696, "refresh": 2000, "provider": "SHA", "pindex": 2}, {"id": "15311", "name": "Weather Station - I-95 @ I-495", "image": "https://ie.trafficland.com/v2.0/15311/full?system=ddot&pubtoken=f46554e7171538ec77c975eaee6b4a3c8700060f2350a2930f78471da71fcf35&refreshRate=2000", "smallimage": "https://ie.trafficland.com/v2.0/15311/half?system=ddot&pubtoken=f46554e7171538ec77c975eaee6b4a3c8700060f2350a2930f78471da71fcf35&refreshRate=2000", "lat": 39.02304, "lng": -76.944439, "refresh": 2000, "provider": "SHA", "pindex": 2}, {"id": "15275", "name": "I-95/495 @ MD-193", "image": "https://ie.trafficland.com/v2.0/15275/full?system=ddot&pubtoken=377e090fdbe679dbae028f633dcb40dc59372bb0cddf0a4b92b8624c23599d90&refreshRate=2000", "smallimage": "https://ie.trafficland.com/v2.0/15275/half?system=ddot&pubtoken=377e090fdbe679dbae028f633dcb40dc59372bb0cddf0a4b92b8624c23599d90&refreshRate=2000", "lat": 38.995458, "lng": -76.889264, "refresh": 2000, "provider": "SHA", "pindex": 2}, {"id": "15312", "name": "Weather Station - I-95 @ Patuxent", "image": "https://ie.trafficland.com/v2.0/15312/full?system=ddot&pubtoken=d80e24d83c5310f7b4345d7b17b5ee4baa255c876efddaad92083581676f4970&refreshRate=2000", "smallimage": "https://ie.trafficland.com/v2.0/15312/half?system=ddot&pubtoken=d80e24d83c5310f7b4345d7b17b5ee4baa255c876efddaad92083581676f4970&refreshRate=2000", "lat": 39.114635, "lng": -76.874293, "refresh": 2000, "provider": "SHA", "pindex": 2}, {"id": "15317", "name": "Weather Station - MD-231 @ Patuxent River", "image": "https://ie.trafficland.com/v2.0/15317/full?system=ddot&pubtoken=851289952540e58b89d031dedad5ec7db599fa1c15c4ba28e2012f017788ccea&refreshRate=2000", "smallimage": "https://ie.trafficland.com/v2.0/15317/half?system=ddot&pubtoken=851289952540e58b89d031dedad5ec7db599fa1c15c4ba28e2012f017788ccea&refreshRate=2000", "lat": 38.510577, "lng": -76.663808, "refresh": 2000, "provider": "SHA", "pindex": 2}, {"id": "15321", "name": "Weather Station - MD-340 @ MD-180", "image": "https://ie.trafficland.com/v2.0/15321/full?system=ddot&pubtoken=d38cc54a1810a779753f5866c90bddabf26bd32db0f0e747d53e2923c3c95f37&refreshRate=2000", "smallimage": "https://ie.trafficland.com/v2.0/15321/half?system=ddot&pubtoken=d38cc54a1810a779753f5866c90bddabf26bd32db0f0e747d53e2923c3c95f37&refreshRate=2000", "lat": 39.356299, "lng": -77.582334, "refresh": 2000, "provider": "SHA", "pindex": 2}, {"id": "15331", "name": "Weather Station - US-301 @ MD-5", "image": "https://ie.trafficland.com/v2.0/15331/full?system=ddot&pubtoken=68445782721d30bc609e62ae93d4633c6002e1ee63ef8067167fe6c19d573f49&refreshRate=2000", "smallimage": "https://ie.trafficland.com/v2.0/15331/half?system=ddot&pubtoken=68445782721d30bc609e62ae93d4633c6002e1ee63ef8067167fe6c19d573f49&refreshRate=2000", "lat": 38.697399, "lng": -76.870574, "refresh": 2000, "provider": "SHA", "pindex": 2}, {"id": "15329", "name": "Weather Station - US-15 @ MD-140", "image": "https://ie.trafficland.com/v2.0/15329/full?system=ddot&pubtoken=a4b698c5b00e0cf1b0f2c879abbdb5c2b69469016b28b46ff3399d7de3c63993&refreshRate=2000", "smallimage": "https://ie.trafficland.com/v2.0/15329/half?system=ddot&pubtoken=a4b698c5b00e0cf1b0f2c879abbdb5c2b69469016b28b46ff3399d7de3c63993&refreshRate=2000", "lat": 39.702334, "lng": -77.313854, "refresh": 2000, "provider": "SHA", "pindex": 2}, {"id": "401577", "name": "National Harbor Blvd @ Waterfront St", "image": "https://ie.trafficland.com/v2.0/401577/full?system=ddot&pubtoken=c6d0dd3f7cb3e47bd44eacd2addb839f3014af0e11c7f45a0f9761da626cacf7&refreshRate=2000", "smallimage": "https://ie.trafficland.com/v2.0/401577/half?system=ddot&pubtoken=c6d0dd3f7cb3e47bd44eacd2addb839f3014af0e11c7f45a0f9761da626cacf7&refreshRate=2000", "lat": 38.786404, "lng": -77.014273, "refresh": 2000, "provider": "SHA", "pindex": 2}, {"id": "15307", "name": "Weather Station - I-70 @ FRED/WASH Co Line", "image": "https://ie.trafficland.com/v2.0/15307/full?system=ddot&pubtoken=ddb66b6b805497387d1967b0a804101235542ffa81ac267ba137967cbd8d7b40&refreshRate=2000", "smallimage": "https://ie.trafficland.com/v2.0/15307/half?system=ddot&pubtoken=ddb66b6b805497387d1967b0a804101235542ffa81ac267ba137967cbd8d7b40&refreshRate=2000", "lat": 39.537271, "lng": -77.606741, "refresh": 2000, "provider": "SHA", "pindex": 2}, {"id": "2161", "name": "Rockville Pk (MD-355) @ Congressional Ln", "image": "https://ie.trafficland.com/v2.0/2161/full?system=ddot&pubtoken=a20c97d1b6ce26985c3e5fbcbd8ba091b8441b17e0c6db08aed26ff620843b5f&refreshRate=2000", "smallimage": "https://ie.trafficland.com/v2.0/2161/half?system=ddot&pubtoken=a20c97d1b6ce26985c3e5fbcbd8ba091b8441b17e0c6db08aed26ff620843b5f&refreshRate=2000", "lat": 39.064115, "lng": -77.126119, "refresh": 2000, "provider": "Montgomery", "pindex": 3}, {"id": "2173", "name": "Georgia Ave (MD-97) @ 16th St (MD-390)", "image": "https://ie.trafficland.com/v2.0/2173/full?system=ddot&pubtoken=627a0a22802171ee95914d05af18780f1ca1a1df1be6806fa7f148e6ed17e94d&refreshRate=2000", "smallimage": "https://ie.trafficland.com/v2.0/2173/half?system=ddot&pubtoken=627a0a22802171ee95914d05af18780f1ca1a1df1be6806fa7f148e6ed17e94d&refreshRate=2000", "lat": 39.006191, "lng": -77.039139, "refresh": 2000, "provider": "Montgomery", "pindex": 3}, {"id": "2171", "name": "Seven Locks Rd @ Bradley Blvd (MD-191)", "image": "https://ie.trafficland.com/v2.0/2171/full?system=ddot&pubtoken=96858ca9032fa5f2c227480274acc9c188722de0741cf31b565279e325355d93&refreshRate=2000", "smallimage": "https://ie.trafficland.com/v2.0/2171/half?system=ddot&pubtoken=96858ca9032fa5f2c227480274acc9c188722de0741cf31b565279e325355d93&refreshRate=2000", "lat": 39.012068, "lng": -77.160234, "refresh": 2000, "provider": "Montgomery", "pindex": 3}, {"id": "2170", "name": "Frederick Rd (MD-355) @ Gude Dr", "image": "https://ie.trafficland.com/v2.0/2170/full?system=ddot&pubtoken=73531ad776a6f8722b2541347322d40ba85b49d6408ba823ec24038c7dcc7ee2&refreshRate=2000", "smallimage": "https://ie.trafficland.com/v2.0/2170/half?system=ddot&pubtoken=73531ad776a6f8722b2541347322d40ba85b49d6408ba823ec24038c7dcc7ee2&refreshRate=2000", "lat": 39.10639, "lng": -77.158639, "refresh": 2000, "provider": "Montgomery", "pindex": 3}, {"id": "2169", "name": "Frederick Rd (MD-355) @ Professional Dr", "image": "https://ie.trafficland.com/v2.0/2169/full?system=ddot&pubtoken=05a7c61032720aa00c1bdcb1873bdb62d674a43d6f553b54d64f60fb5f0ca8ff&refreshRate=2000", "smallimage": "https://ie.trafficland.com/v2.0/2169/half?system=ddot&pubtoken=05a7c61032720aa00c1bdcb1873bdb62d674a43d6f553b54d64f60fb5f0ca8ff&refreshRate=2000", "lat": 39.163388, "lng": -77.226439, "refresh": 2000, "provider": "Montgomery", "pindex": 3}, {"id": "2172", "name": "Georgia Ave (MD-97) @ Spring St", "image": "https://ie.trafficland.com/v2.0/2172/full?system=ddot&pubtoken=b4fb62a14fbe5ed679f3d5e70fb0556ad87e8bdd0f5b5cf229dc06e54c7eb1aa&refreshRate=2000", "smallimage": "https://ie.trafficland.com/v2.0/2172/half?system=ddot&pubtoken=b4fb62a14fbe5ed679f3d5e70fb0556ad87e8bdd0f5b5cf229dc06e54c7eb1aa&refreshRate=2000", "lat": 38.999255, "lng": -77.031896, "refresh": 2000, "provider": "Montgomery", "pindex": 3}, {"id": "2177", "name": "Bradley Blvd/Oaklyn Dr @ Persimmon Tree Rd", "image": "https://ie.trafficland.com/v2.0/2177/full?system=ddot&pubtoken=f72ee55b7fda192dccba2361097d498b689b8c849c16a451c765d1a9ad678e60&refreshRate=2000", "smallimage": "https://ie.trafficland.com/v2.0/2177/half?system=ddot&pubtoken=f72ee55b7fda192dccba2361097d498b689b8c849c16a451c765d1a9ad678e60&refreshRate=2000", "lat": 38.997891, "lng": -77.188881, "refresh": 2000, "provider": "Montgomery", "pindex": 3}, {"id": "2176", "name": "Rockville Pk (MD-355) @ Cedar Ln", "image": "https://ie.trafficland.com/v2.0/2176/full?system=ddot&pubtoken=cafa3f04ed992bdb487dbd8909685f9e1d93d97f7ea87d3e5fc8a86f3ff36066&refreshRate=2000", "smallimage": "https://ie.trafficland.com/v2.0/2176/half?system=ddot&pubtoken=cafa3f04ed992bdb487dbd8909685f9e1d93d97f7ea87d3e5fc8a86f3ff36066&refreshRate=2000", "lat": 39.006194, "lng": -77.097847, "refresh": 2000, "provider": "Montgomery", "pindex": 3}, {"id": "2175", "name": "Rockville Pk (MD-355) @ South Dr", "image": "https://ie.trafficland.com/v2.0/2175/full?system=ddot&pubtoken=9465298808bd91aaa417c83275e389a483c8fd493d6d737ad27d949901ee4fc5&refreshRate=2000", "smallimage": "https://ie.trafficland.com/v2.0/2175/half?system=ddot&pubtoken=9465298808bd91aaa417c83275e389a483c8fd493d6d737ad27d949901ee4fc5&refreshRate=2000", "lat": 38.999185, "lng": -77.097019, "refresh": 2000, "provider": "Montgomery", "pindex": 3},